City_ID,City,Lat,Lng,Max Temp,Humidity,Cloudiness,Wind Speed,Country,Date
0,Oqtosh,39.9214,65.9253,19.34,48,0,4.31,UZ,1715487148
1,Port Alfred,-33.5906,26.891,13.54,82,4,5.23,ZA,1715487149
2,Kerikeri,-35.2268,173.9474,17.17,61,50,1.34,NZ,1715487150
3,Mahina,-17.5065,-149.489,28.87,65,0,1.54,PF,1715487019
4,Tofol,5.3248,163.0078,29.88,79,75,6.17,FM,1715487152
5,Vorgashor,67.5833,63.95,-9.0,99,97,2.35,RU,1715487153
6,Al Hillah,32.4801,44.4353,30.76,24,43,7.44,IQ,1715487153
7,Edinburgh of the Seven Seas,-37.0676,-12.3116,15.72,90,100,6.49,SH,1715487154
8,Grand Gaube,-20.0064,57.6608,26.32,81,30,4.02,MU,1715487155
9,Forster,-32.1667,152.5167,20.21,78,30,3.42,AU,1715487156
10,Mana,5.6592,-53.7767,25.63,89,100,3.53,GF,1715487156
11,Bethel,41.3712,-73.414,10.05,78,100,1.54,US,1715487151
12,Bilibino,68.0546,166.4372,2.99,76,75,1.19,RU,1715487158
13,Grytviken,-54.2811,-36.5092,0.25,86,65,3.25,GS,1715487159
14,Adamstown,-25.066,-130.1015,20.55,65,0,4.09,PN,1715487085
15,Waitangi,-43.9535,-176.5597,11.01,88,98,3.58,NZ,1715487161
16,Cologne,50.9333,6.95,14.98,79,0,1.54,DE,1715487161
17,San Antonio de Palé,-1.4014,5.6325,26.53,87,94,2.99,GQ,1715487162
18,Kapuskasing,49.4169,-82.4331,6.93,71,47,0.48,CA,1715487163
19,Labrador City,52.9463,-66.9114,5.1,50,33,2.28,CA,1715487106
20,Port Lincoln,-34.7333,135.8667,18.09,50,0,0.73,AU,1715487165
21,Vilyuchinsk,52.9306,158.4028,13.15,60,70,1.44,RU,1715487139
22,Santa Vitória do Palmar,-33.5189,-53.3681,15.14,83,100,4.63,BR,1715487166
23,Atafu Village,-8.5421,-172.5159,29.91,67,11,5.1,TK,1715487167
24,Birżebbuġa,35.8258,14.5269,17.31,94,0,2.06,MT,1715487168
25,Sitka,57.0531,-135.33,7.94,66,75,4.12,US,1715487169
26,Port-aux-Français,-49.35,70.2167,7.84,96,100,13.63,TF,1715487169
27,Puerto Natales,-51.7236,-72.4875,1.58,98,100,2.1,CL,1715487090
28,Utrik,11.2278,169.8474,27.21,81,91,6.73,MH,1715487172
29,Dusa Marreb,5.535,46.3861,27.96,70,40,3.83,SO,1715487173
30,Villa de Reyes,21.8,-100.9333,19.89,58,71,0.85,MX,1715487173
31,Coahuayana de Hidalgo,18.7,-103.6583,22.41,88,35,1.04,MX,1715487174
32,Qaqortoq,60.7167,-46.0333,-1.13,94,43,1.47,GL,1715487175
33,Hajnówka,52.7433,23.5812,3.78,82,10,0.45,PL,1715487176
34,Ulanhot,46.0833,122.0833,19.41,25,3,5.03,CN,1715487176
35,Papatowai,-46.5619,169.4708,11.31,84,79,4.95,NZ,1715487177
36,Revda,56.801,59.9303,7.91,80,100,7.14,RU,1715487125
37,Rawicz,51.6095,16.8585,9.52,72,47,3.54,PL,1715487179
38,Tralee,52.2704,-9.7026,12.08,89,100,0.84,IE,1715487180
39,Notodden,59.5594,9.2585,13.33,86,74,0.63,NO,1715487026
40,Callao,-12.0667,-77.15,20.4,82,75,3.6,PE,1715487181
41,Rio Grande,-32.035,-52.0986,18.06,89,100,8.38,BR,1715486899
42,Cabedelo,-6.9811,-34.8339,25.37,80,24,2.58,BR,1715487183
43,Vadsø,70.0744,29.7487,1.49,86,20,3.09,NO,1715487183
44,Murray Bridge,-35.1167,139.2667,19.08,49,0,2.26,AU,1715487184
45,Saint-François,46.4154,3.9054,10.93,94,0,0.0,FR,1715487019
46,Talnakh,69.4865,88.3972,-3.22,95,100,4.69,RU,1715487088
47,Whitehorse,60.7161,-135.0538,7.95,31,97,7.6,CA,1715486947
48,Barbacena,-21.2258,-43.7736,16.29,77,0,0.87,BR,1715487187
49,Kenai,60.5544,-151.2583,8.05,79,100,6.69,US,1715487188
50,Bardai,11.65,7.2333,25.47,71,100,5.07,NG,1715487189
51,Salaga,8.5508,-0.5188,25.81,81,100,1.61,GH,1715487190
52,Maloye Ganyushkino,46.6,49.2667,17.54,61,100,0.9,KZ,1715487191
53,Port Elizabeth,-33.918,25.5701,11.84,74,9,1.79,ZA,1715487191
54,Khāsh,28.2211,61.2158,21.56,22,34,2.38,IR,1715487091
55,Palmer,42.1584,-72.3287,10.65,69,100,1.27,US,1715486897
56,Suva,-18.1416,178.4415,25.71,61,75,5.14,FJ,1715487194
57,Phan Rang-Thap Cham,11.5667,108.9833,35.22,46,19,5.72,VN,1715487194
58,Champigny-sur-Marne,48.8164,2.4937,15.21,79,0,2.24,FR,1715487042
59,Tarko-Sale,64.9225,77.785,1.33,96,100,7.1,RU,1715487196
60,Albany,42.6001,-73.9662,12.23,71,100,3.29,US,1715487180
61,Uturoa,-16.7333,-151.4333,27.6,76,2,5.12,PF,1715487198
62,Narasannapeta,18.4167,84.05,33.73,56,13,5.09,IN,1715487198
63,Iqaluit,63.7506,-68.5145,-6.28,85,100,10.73,CA,1715487199
64,Nadi,-17.8,177.4167,28.0,47,75,6.17,FJ,1715487200
65,Imperatriz,-5.5264,-47.4917,22.63,74,9,0.81,BR,1715487201
66,Hermanus,-34.4187,19.2345,8.22,79,6,3.74,ZA,1715487202
67,Sarupathar,26.1984,93.8094,29.12,41,68,2.07,IN,1715487202
68,West Bay,19.3667,-81.4167,27.26,84,49,4.05,KY,1715487153
69,Puerto Ayora,-0.7393,-90.3518,23.64,99,94,0.45,EC,1715487205
70,Belyy Yar,53.6039,91.3903,15.94,63,0,5.0,RU,1715487206
71,Galliano,29.4422,-90.2992,22.22,88,0,0.0,US,1715487207
72,Wailua Homesteads,22.0669,-159.378,25.24,80,20,6.17,US,1715487208
73,Port-Gentil,-0.7193,8.7815,26.91,89,100,2.7,GA,1715487209
74,San Ignacio,17.1561,-89.0714,31.08,74,0,3.09,BZ,1715487209
75,Kavieng,-2.5744,150.7967,29.27,75,84,2.46,PG,1715487210
76,Lensk,60.7253,114.9278,5.44,92,100,2.35,RU,1715487211
77,Labytnangi,66.6572,66.4183,-2.57,89,98,5.26,RU,1715487212
78,Mar del Plata,-38.0023,-57.5575,11.72,68,93,4.47,AR,1715487012
79,Alofi,-19.0595,-169.9187,25.94,61,38,6.69,NU,1715487213
80,Ilulissat,69.2167,-51.1,-0.99,80,100,1.54,GL,1715487214
81,Blackmans Bay,-43.0167,147.3167,15.96,70,17,0.45,AU,1715487215
82,Enewetak,11.3474,162.3373,27.7,81,94,8.14,MH,1715487216
83,São João do Piauí,-8.3581,-42.2467,22.81,75,88,1.83,BR,1715487217
84,Aykhal,66.0,111.5,-3.05,89,100,9.76,RU,1715487218
85,Kavaratti,10.5669,72.642,30.0,70,42,5.57,IN,1715487218
86,Beipiao,41.7919,120.7792,21.2,23,3,6.97,CN,1715487219
87,Mount Pearl,47.5166,-52.7813,0.74,97,100,6.17,CA,1715487220
88,Caleta de Carquín,-11.0925,-77.6267,18.46,89,95,2.3,PE,1715487221
89,West Island,-12.1568,96.8225,29.99,79,40,5.14,CC,1715486947
90,Fruita,39.1589,-108.729,12.64,64,40,4.12,US,1715486980
91,Kourou,5.1552,-52.6478,25.03,94,100,2.19,GF,1715487223
92,Sioux City,42.5,-96.4003,20.25,49,0,2.06,US,1715487006
93,Mossel Bay,-34.1831,22.146,12.75,81,4,1.3,ZA,1715487226
94,Ushuaia,-54.8,-68.3,-1.61,93,82,2.17,AR,1715487226
95,Thompson,55.7435,-97.8558,6.91,69,74,4.51,CA,1715487227
96,Isafjordur,66.0755,-23.124,2.61,94,100,2.79,IS,1715487089
97,Invercargill,-46.4,168.35,11.68,91,99,2.68,NZ,1715487194
98,Avarua,-21.2078,-159.775,25.03,73,100,3.6,CK,1715487083
99,Auki,-8.7676,160.7034,29.73,65,82,1.12,SB,1715487230
100,Anadyr,64.75,177.4833,-0.72,74,100,3.0,RU,1715487065
101,Kangding,30.0513,101.9603,9.19,100,100,1.71,CN,1715487232
102,Katsuura,35.1333,140.3,21.25,74,99,10.07,JP,1715487233
103,Bredasdorp,-34.5322,20.0403,10.43,86,5,0.97,ZA,1715487233
104,Chelak,39.9203,66.8611,18.42,47,0,3.06,UZ,1715487234
105,Farasān,16.7022,42.1183,31.44,77,95,3.66,SA,1715487235
106,Douglas,41.3,-96.167,20.9,55,0,0.0,US,1715487236
107,Al Jawf,29.5,38.75,21.67,39,0,5.21,SA,1715487237
108,Newman,37.3138,-121.0208,26.13,54,0,1.79,US,1715487096
109,Krasnokamensk,50.0979,118.0369,14.6,21,30,5.41,RU,1715487238
110,Doctor Alberto Oviedo Mota,32.2275,-115.1697,28.07,10,0,2.61,MX,1715487239
111,Margaret River,-33.95,115.0667,21.06,53,100,1.88,AU,1715487240
112,Namdrik,5.5994,168.1028,28.27,80,100,6.64,MH,1715487241
113,Hamilton,39.1834,-84.5333,13.88,75,40,1.54,US,1715487015
114,Kochubey,44.3861,46.5825,15.97,70,82,3.1,RU,1715487242
115,Leava,-14.3,-178.1667,27.7,76,100,10.78,WF,1715487243
116,Tegina,10.0706,6.1906,25.3,79,100,1.95,NG,1715487244
117,Sanya,18.2431,109.505,31.84,61,25,4.13,CN,1715487245
118,Petropavlovsk-Kamchatskiy,53.0452,158.6483,12.33,75,40,6.0,RU,1715487246
119,Dzüünharaa,48.8523,106.4579,22.99,20,69,3.14,MN,1715487246
120,La Foa,-21.7108,165.8276,25.08,56,51,1.04,NC,1715487247
121,Tomatlán,19.9333,-105.25,21.22,94,4,0.26,MX,1715487248
122,Enoch,37.7733,-113.0244,13.14,45,100,5.66,US,1715487249
123,Machico,32.7,-16.7667,19.35,75,40,6.69,PT,1715487250
124,Mount Gambier,-37.8333,140.7667,19.89,46,98,2.36,AU,1715487251
125,Cadale,2.7603,46.3222,27.71,82,9,7.12,SO,1715487251
126,Jamestown,42.097,-79.2353,8.9,98,100,3.6,US,1715486954
127,Bentiu,9.2333,29.8333,30.39,41,85,3.31,SS,1715487253
128,Taber,49.8167,-112.1518,17.0,48,100,7.2,CA,1715487254
129,Tharangambadi,11.0319,79.8528,32.86,57,100,3.54,IN,1715487255
130,Port Augusta,-32.5,137.7667,20.1,49,0,4.63,AU,1715487255
131,Macas,-2.3167,-78.1167,19.22,97,96,1.69,EC,1715487256
132,Yellowknife,62.456,-114.3525,1.98,80,89,4.47,CA,1715486993
133,San Patricio,28.017,-97.5169,26.94,88,71,4.98,US,1715487258
134,Skidaway Island,31.9349,-81.0471,18.32,86,0,0.0,US,1715487259
135,Olonkinbyen,70.9221,-8.7187,-1.37,97,100,7.21,SJ,1715487260
136,Åkrehamn,59.2667,5.1833,10.23,93,20,2.57,NO,1715487261
137,Qujing,25.4833,103.7833,21.13,52,65,0.89,CN,1715487262
138,Ketchikan,55.3422,-131.6461,11.26,62,0,4.12,US,1715487262
139,Shatsk,54.0258,41.7119,1.48,84,16,4.86,RU,1715487263
140,Serra,-20.1286,-40.3078,25.7,78,40,2.57,BR,1715487255
141,Tiksi,71.6872,128.8694,-3.83,81,100,2.06,RU,1715487089
142,Codajás,-3.8367,-62.0569,23.99,97,91,0.49,BR,1715487266
143,Kurayoshi,35.4333,133.8167,17.9,91,100,6.19,JP,1715487267
144,Louis Trichardt,-23.0439,29.9032,15.67,87,70,3.36,ZA,1715487267
145,Mugia,43.1041,-9.2179,13.84,93,100,0.8,ES,1715487268
146,Queenstown,-31.8976,26.8753,10.18,76,98,1.15,ZA,1715487269
147,Shawinigan,46.5668,-72.7491,10.13,82,81,2.33,CA,1715487270
148,Hastings,50.8552,0.5729,15.85,93,100,4.2,GB,1715487270
149,Rémire-Montjoly,4.9167,-52.2667,25.02,100,75,0.0,GF,1715487271
150,Punta Arenas,-53.15,-70.9167,2.06,69,20,4.12,CL,1715487190
151,Sisimiut,66.9395,-53.6735,-0.11,94,100,5.54,GL,1715487274
152,Kearney,40.6995,-99.0815,20.06,49,0,4.12,US,1715487274
153,Foz do Iguaçu,-25.5478,-54.5881,23.51,100,0,1.54,BR,1715487275
154,Lihue,21.9789,-159.3672,25.58,75,20,6.17,US,1715487276
155,Sungai Penuh,-2.0833,101.3833,27.56,63,86,0.74,ID,1715487277
156,Kshenskiy,51.8408,37.7136,4.05,76,4,4.96,RU,1715487278
157,Ribeira Grande,38.5167,-28.7,18.21,95,14,3.13,PT,1715487279
158,Constanța,44.1833,28.65,14.38,77,15,4.67,RO,1715487280
159,Dakhla,23.6848,-15.958,18.04,86,5,10.82,EH,1715487280
160,Porto-Novo,6.4965,2.6036,26.46,90,100,1.99,BJ,1715487281
161,Envira,-7.3,-70.2167,23.94,87,84,0.12,BR,1715487282
162,Yallahs,17.8748,-76.5624,28.85,87,100,3.05,JM,1715487283
163,Porto Seguro,-16.4497,-39.0647,24.29,94,20,1.03,BR,1715487284
164,George Town,5.4112,100.3354,30.96,74,20,2.57,MY,1715487285
165,Chonchi,-42.6128,-73.8092,3.4,89,12,1.31,CL,1715487286
166,Afaahiti,-17.75,-149.2833,27.93,80,12,5.2,PF,1715487287
167,Søgne,58.0833,7.8167,9.83,98,62,0.45,NO,1715487288
168,Nishinoomote,30.7333,131.0,22.81,83,100,7.76,JP,1715487288
169,Mata-Utu,-13.2816,-176.1745,28.62,75,94,10.08,WF,1715487289
170,Narvik,68.4384,17.4272,6.56,97,100,1.96,NO,1715487290
171,Taoudenni,22.6783,-3.9836,30.6,9,81,2.96,ML,1715487291
172,Saint Paul Harbor,57.79,-152.4072,6.73,76,75,3.6,US,1715487292
173,Berezovyy,51.6667,135.7,4.65,85,100,3.15,RU,1715487138
174,Kualakapuas,-3.0091,114.3876,28.8,87,17,1.13,ID,1715487294
175,Lagi,10.6667,107.7833,32.87,58,58,6.95,VN,1715487295
176,Colares,38.7992,-9.4469,15.55,85,94,6.71,PT,1715487296
177,College,64.8569,-147.8028,14.48,26,100,3.09,US,1715487297
178,Kenora,49.8167,-94.4337,11.55,95,96,3.13,CA,1715487298
179,Kaa-Khem,51.6833,94.7333,17.45,44,100,6.87,RU,1715487298
180,Balikpapan,-1.2675,116.8289,25.55,94,40,1.54,ID,1715487299
181,Hasaki,35.7333,140.8333,24.05,71,100,11.54,JP,1715487300
182,Holualoa,19.6228,-155.9522,23.91,82,40,4.12,US,1715487301
183,Novodvinsk,64.4165,40.8122,-1.14,92,100,3.81,RU,1715487302
184,Kruisfontein,-34.0033,24.7314,9.73,73,2,3.15,ZA,1715487303
185,Longyearbyen,78.2186,15.6401,-0.09,86,40,4.12,SJ,1715487087
186,Tucumã,-0.1833,-50.05,24.87,95,100,2.13,BR,1715487304
187,Nemuro,43.3236,145.575,10.0,92,100,11.72,JP,1715487305
188,Cholpon-Ata,42.6494,77.0823,13.92,73,98,2.37,KG,1715487306
189,Songea,-10.6833,35.65,14.25,85,2,0.74,TZ,1715487307
190,Yershov,51.3513,48.2766,11.49,73,75,3.66,RU,1715487308
191,Inarajan Village,13.2736,144.7484,32.54,79,89,6.55,GU,1715487309
192,Kirakira,-10.4544,161.9205,28.79,66,61,5.12,SB,1715487310
193,Lüshunkou,38.8,121.2667,21.12,51,2,4.99,CN,1715487311
194,Hadibu,12.65,54.0333,28.35,74,28,1.01,YE,1715486726
195,Badger,64.8,-147.5333,14.43,26,20,3.09,US,1715487312
196,Krasnoturansk,54.3186,91.5639,10.69,86,100,4.02,RU,1715487313
197,Haenam,34.5711,126.5989,19.28,44,100,8.24,KR,1715487314
198,Quellón,-43.1167,-73.6167,4.4,84,13,2.39,CL,1715486781
199,Haiku-Pauwela,20.9219,-156.3051,24.01,84,75,5.14,US,1715487316
200,Saipan,15.1355,145.701,33.39,55,40,7.72,MP,1715487317
201,Birao,10.2849,22.7882,30.2,12,83,2.09,CF,1715487318
202,Arrondissement de Saint-Jean-de-Maurienne,45.1667,6.5833,2.85,94,70,0.95,FR,1715487319
203,Otjiwarongo,-20.4637,16.6477,14.87,30,0,3.41,NA,1715487319
204,Pakse,15.1167,105.7833,37.38,40,55,0.86,LA,1715487320
205,Kuanda,56.3161,116.0806,11.04,43,100,1.46,RU,1715487321
206,Ola,59.5833,151.2833,0.63,86,100,2.97,RU,1715487322
207,Batang,-6.4846,110.7083,32.42,56,88,2.61,ID,1715487323
208,Koné,-21.0595,164.8658,26.78,52,47,3.33,NC,1715486803
209,Polyarny,69.1989,33.4478,0.6,81,98,0.89,RU,1715487324
210,Bubaque,11.2833,-15.8333,26.45,76,22,6.44,GW,1715487325
211,El Calafate,-50.3408,-72.2768,2.21,73,98,2.51,AR,1715486763
212,Hawaiian Paradise Park,19.5933,-154.9731,23.82,93,100,0.89,US,1715487327
213,Ingeniero Guillermo N. Juárez,-23.9,-61.85,13.59,95,100,4.01,AR,1715487328
214,Nova Sintra,14.8667,-24.7167,24.23,79,90,7.53,CV,1715487328
215,Sandnessjøen,66.0217,12.6316,8.06,93,75,7.2,NO,1715487330
216,Pisco,-13.7,-76.2167,18.03,88,79,2.57,PE,1715487147
217,Fale old settlement,-9.3852,-171.2468,29.2,74,79,5.1,TK,1715487332
218,General Conesa,-40.1,-64.4333,9.37,66,100,1.92,AR,1715487136
219,Vila Franca do Campo,37.7167,-25.4333,18.27,99,15,1.75,PT,1715487334
220,Sidareja,-7.4846,108.7923,28.16,83,98,2.37,ID,1715487334
221,Lebu,-37.6167,-73.65,7.67,87,0,1.22,CL,1715487335
222,Port Mathurin,-19.6833,63.4167,25.27,77,16,9.15,MU,1715487336
223,Budva,42.2864,18.84,15.14,93,0,0.51,ME,1715487337
224,Isangel,-19.55,169.2667,26.06,78,100,4.12,VU,1715487338
225,Mossamedes,-15.1961,12.1522,22.28,77,0,2.36,AO,1715487339
226,Taman',45.2117,36.7161,14.13,75,56,7.76,RU,1715487339
227,Camariñas,43.1311,-9.1817,13.85,93,100,0.52,ES,1715487340
228,Laguna,38.421,-121.4238,27.08,51,0,3.09,US,1715487341
229,Taroa,8.7058,171.2275,27.25,83,99,5.11,MH,1715487342
230,Port Isabel,26.0734,-97.2086,27.79,85,75,4.63,US,1715487343
231,Bridgewater,44.3835,-64.5155,5.9,98,94,1.79,CA,1715487343
232,Khandyga,62.6667,135.6,7.77,34,93,1.42,RU,1715487138
233,An Nuhūd,12.7,28.4333,29.75,12,47,3.52,SD,1715487345
234,Arraial do Cabo,-22.9661,-42.0278,24.05,88,4,4.55,BR,1715487346
235,Igarka,67.4667,86.5833,-0.55,99,100,5.81,RU,1715486748
236,Praia da Vitória,38.7333,-27.0667,18.2,94,24,2.3,PT,1715487347
237,As Sulayyil,20.4607,45.5779,28.14,17,16,2.09,SA,1715487348
238,Kaifeng,34.7911,114.3483,29.16,11,1,2.7,CN,1715487349
239,Pesqueira,-8.3578,-36.6964,19.31,96,99,2.09,BR,1715487246
240,Usinsk,65.9939,57.5281,-1.07,87,100,4.47,RU,1715487351
241,Pangai,-19.8,-174.35,24.37,72,85,10.6,TO,1715487352
242,Águas Belas,-9.1114,-37.1231,20.14,97,100,0.77,BR,1715487353
243,Udachny,66.4167,112.4,-3.64,62,100,8.12,RU,1715487354
244,Beloyarskiy,63.7119,66.6722,1.11,93,100,3.13,RU,1715487355
245,Flying Fish Cove,-10.4217,105.6791,27.82,83,100,4.63,CX,1715487060
246,Kingscliff,-28.2667,153.5667,24.29,78,40,3.6,AU,1715487356
247,Elverum,60.8819,11.5623,9.25,80,96,0.8,NO,1715487357
248,Podporozh'ye,60.9112,34.1706,1.39,83,65,3.09,RU,1715487358
249,Houma,29.5958,-90.7195,22.22,79,0,0.0,US,1715487359
250,Naryan-Mar,67.6713,53.087,-3.83,94,98,5.36,RU,1715487360
251,Solone,48.2081,34.8721,6.63,70,11,5.57,UA,1715487361
252,Gornozavodsk,58.3758,58.3211,3.59,98,100,4.78,RU,1715487361
253,Fort St. John,56.2499,-120.8529,11.97,56,90,1.68,CA,1715487288
254,Pimenta Bueno,-11.6725,-61.1936,23.14,83,100,0.71,BR,1715487363
255,Archangelos,36.2149,28.1149,17.95,80,2,3.09,GR,1715487364
256,Villa Huidobro,-34.8383,-64.5869,5.92,86,8,3.0,AR,1715487366
257,Yantarnyy,54.8717,19.9381,2.92,72,16,2.58,RU,1715487366
258,Dien Bien Phu,21.3833,103.0167,34.43,40,8,1.53,VN,1715487367
259,Erenhot,43.6475,111.9767,17.29,17,9,3.04,CN,1715487368
260,Susuman,62.7833,148.1667,3.32,69,100,5.36,RU,1715487369
261,Peace River,56.2501,-117.286,12.78,48,34,2.06,CA,1715487184
262,Hede,33.7681,120.2517,23.94,28,100,3.58,CN,1715487371
263,Gaspé,48.8334,-64.4819,2.37,82,20,1.1,CA,1715486831
264,Mount Isa,-20.7333,139.5,26.87,47,40,4.12,AU,1715487372
265,East London,-33.0153,27.9116,15.52,58,0,4.12,ZA,1715487373
266,Raton,36.9034,-104.4391,7.34,100,100,2.06,US,1715487374
267,Batticaloa,7.7102,81.6924,28.75,79,100,2.34,LK,1715487375
268,Canutama,-6.5339,-64.3831,25.72,84,100,1.17,BR,1715487376
269,Viçosa,-20.7539,-42.8819,21.39,82,100,1.56,BR,1715487377
270,Cole Harbour,44.6724,-63.4751,6.21,79,84,5.14,CA,1715487377
271,Riachão das Neves,-11.7461,-44.91,23.34,52,66,0.11,BR,1715487378
272,New Norfolk,-42.7826,147.0587,17.06,57,8,1.44,AU,1715487379
273,Chebba,35.2372,11.115,19.3,79,0,4.37,TN,1715487380
274,Klyuchi,52.2667,79.1667,16.06,26,0,2.17,RU,1715487381
275,Northam,51.0333,-4.2167,14.78,83,100,3.08,GB,1715487382
276,Ålesund,62.4723,6.1549,13.51,87,100,2.06,NO,1715487383
277,Al Ghayzah,16.2079,52.176,29.57,64,0,1.88,YE,1715487383
278,Bathsheba,13.2167,-59.5167,28.34,78,40,7.2,BB,1715487384
279,Ust-Nera,64.5667,143.2,1.67,47,74,3.44,RU,1715487385
280,Pokhara,28.2333,83.9833,21.39,74,88,1.01,NP,1715487303
281,Iquique,-20.2208,-70.1431,16.58,85,82,1.89,CL,1715487182
282,Stanley,54.868,-1.6985,9.01,90,100,1.54,GB,1715487387
283,Hammerfest,70.6634,23.6821,4.25,81,100,1.54,NO,1715487388
284,Mumbwa,-14.9783,27.0619,17.25,63,38,2.06,ZM,1715487389
285,Castillos,-34.1667,-53.8333,14.65,69,100,3.83,UY,1715487390
286,Prince Rupert,54.3161,-130.3201,8.5,77,98,1.32,CA,1715487304
287,Kismayo,-0.3582,42.5454,26.59,84,61,5.49,SO,1715487391
288,Horta,38.5333,-28.6333,17.79,95,30,3.13,PT,1715487392
289,San Cristobal,7.7669,-72.225,23.1,94,37,1.38,VE,1715487394
290,Ati,13.2154,18.3353,30.18,16,41,2.9,TD,1715487395
291,Dudinka,69.4058,86.1778,-2.96,97,99,2.68,RU,1715487395
292,Yarmouth,41.7057,-70.2286,6.65,90,0,1.79,US,1715487187
293,Kailua-Kona,19.6406,-155.9956,25.98,82,40,4.12,US,1715487390
294,Bowen,-20.0167,148.2333,25.97,59,21,6.22,AU,1715487398
295,Princeville,45.7668,-61.2985,4.31,94,100,4.12,CA,1715487399
296,Tuy Hoa,13.0833,109.3,33.75,50,100,4.14,VN,1715487400
297,Tosontsengel,48.7567,98.2839,23.24,16,2,5.85,MN,1715487401
298,Baker City,44.7749,-117.8344,16.84,55,0,3.6,US,1715487359
299,Tromsø,69.6496,18.957,4.01,93,75,2.57,NO,1715487402
300,Dolinsk,47.35,142.8,8.18,95,100,6.41,RU,1715487403
301,Morehead City,34.7229,-76.726,18.02,77,0,3.6,US,1715486808
302,Chenārān,36.6455,59.1212,16.01,44,32,1.33,IR,1715487405
303,Barra de Santo Antônio,-9.4047,-35.5072,24.6,88,92,1.79,BR,1715487405
304,Fort Bragg,35.139,-79.006,19.0,66,100,2.06,US,1715487264
305,Jolo,6.05,121.0167,31.15,69,93,1.38,PH,1715487407
306,Tondano,1.3038,124.9112,28.05,77,99,0.43,ID,1715487408
307,Ulsteinvik,62.3432,5.8487,13.5,78,100,2.5,NO,1715487408
308,Atamyrat,37.8357,65.2106,22.75,35,0,2.63,TM,1715487409
309,Borogontsy,62.6683,131.1683,4.72,60,100,1.84,RU,1715487410
310,Port Saint John's,-31.6229,29.5448,18.57,67,100,3.53,ZA,1715487411
311,Meiningen,50.5679,10.4152,9.34,95,0,1.54,DE,1715487412
312,Hailar,49.2,119.7,13.28,22,12,8.23,CN,1715487413
313,Kas,36.2018,29.6377,17.92,81,47,2.67,TR,1715487414
314,Akureyri,65.6835,-18.0878,7.32,89,100,1.06,IS,1715487414
315,Amursk,50.2261,136.8994,3.88,92,100,6.77,RU,1715487416
316,Marsa Alam,25.0757,34.8918,26.27,65,0,4.13,EG,1715487417
317,Navotas,14.4167,121.2268,34.96,61,19,5.98,PH,1715487418
318,Howrah,22.5892,88.3103,30.0,74,40,2.06,IN,1715487336
319,Fortuna,40.5982,-124.1573,12.74,94,100,2.57,US,1715487420
320,Nefta,33.8731,7.8777,23.37,31,100,3.3,TN,1715487420
321,Zaysan,47.4667,84.8667,18.53,59,99,2.76,KZ,1715487421
322,La Ronge,55.1001,-105.2842,8.14,57,7,6.17,CA,1715487422
323,Dadukou,26.5479,101.7054,24.78,47,83,3.19,CN,1715487423
324,Taltal,-25.4,-70.4833,15.8,80,93,1.12,CL,1715487424
325,Port Blair,11.6667,92.75,32.02,70,40,3.09,IN,1715487424
326,Lā‘ie,21.6477,-157.9253,23.98,78,51,1.34,US,1715487425
327,Brigantine,39.4101,-74.3646,10.57,79,82,2.24,US,1715487283
328,Cockburn Town,21.4612,-71.1419,26.25,84,0,2.48,TC,1715487428
329,Hithadhoo,-0.6,73.0833,29.16,77,84,4.28,MV,1715487429
330,Beyneu,45.3167,55.2,24.28,21,62,12.25,KZ,1715487430
331,Mpongwe,-13.5091,28.155,16.8,71,54,2.24,ZM,1715487431
332,Saurimo,-9.6608,20.3916,16.38,57,26,2.07,AO,1715487432
333,Mooloolabah,-26.6833,153.1167,24.61,90,66,1.34,AU,1715487433
334,Sinabang,2.4803,96.3801,25.87,92,100,3.82,ID,1715487434
335,Arkhangelsk,64.5401,40.5433,0.06,74,100,3.0,RU,1715487434
336,Chibougamau,49.9168,-74.3659,8.79,61,100,1.03,CA,1715487436
337,Crane,31.3974,-102.3501,18.15,86,50,7.76,US,1715487437
338,Merizo Village,13.2658,144.6691,32.31,79,88,6.34,GU,1715487438
339,Wanning,18.8003,110.3967,32.28,59,36,5.1,CN,1715487439
340,Egilsstadir,65.2653,-14.3948,4.95,93,75,2.57,IS,1715487440
341,Ak-Dovurak,51.1833,90.6,17.28,39,100,0.45,RU,1715487441
342,Mawlamyinegyunn,16.3833,95.2667,36.21,39,59,1.98,MM,1715487436
343,Maitum,6.0392,124.4986,29.67,75,54,2.08,PH,1715487443
344,Keflavik,64.0049,-22.5624,7.95,93,100,8.23,IS,1715487443
345,Butterworth,5.3991,100.3638,32.03,67,20,2.57,MY,1715487444
346,Pitimbu,-7.4706,-34.8086,25.33,78,20,2.21,BR,1715487445
347,Aplahoué,6.9333,1.6833,24.89,95,100,1.6,BJ,1715487446
348,Happy Valley-Goose Bay,53.3168,-60.3315,6.17,61,20,2.57,CA,1715487447
349,Elko,41.0002,-115.5012,15.01,38,23,2.24,US,1715487353
350,Lüderitz,-26.6481,15.1594,12.69,76,0,6.48,NA,1715487449
351,Tazacorte,28.629,-17.9293,19.54,89,75,8.23,ES,1715487449
352,Page,36.9147,-111.4558,15.88,43,0,2.68,US,1715487450
353,Tura,25.5198,90.2201,30.62,55,4,0.42,IN,1715487451
354,São José da Coroa Grande,-8.8978,-35.1478,25.82,80,100,0.87,BR,1715487452
355,Gisborne,-38.6533,178.0042,12.42,62,0,2.83,NZ,1715487190
356,Portel,-1.9356,-50.8211,24.16,99,100,2.07,BR,1715487453
357,Vikulovo,56.8167,70.6107,12.27,50,77,7.61,RU,1715487454
358,Xilin Hot,43.9667,116.0333,17.19,17,0,7.36,CN,1715487455
359,Nikolayevsk-on-Amur,53.1406,140.73,4.56,65,100,5.36,RU,1715487456
360,Priargunsk,50.3691,119.1012,14.76,17,7,5.64,RU,1715487457
361,Waingapu,-9.6567,120.2641,30.02,64,54,6.57,ID,1715487459
362,Presidente Epitácio,-21.7633,-52.1156,20.64,50,0,1.04,BR,1715487444
363,Lerwick,60.1545,-1.1494,11.0,87,100,8.63,GB,1715487460
364,Province of Vibo Valentia,38.6996,16.1274,12.33,84,6,1.81,IT,1715487461
365,Arradon,47.6271,-2.8215,15.49,82,0,0.51,FR,1715487463
366,Genhe,50.7833,121.5167,11.57,32,40,4.12,CN,1715487463
367,Chiungutwa,-10.8833,38.9833,18.81,97,6,0.09,TZ,1715487464
368,Sumbe,-11.2061,13.8437,25.02,88,51,3.1,AO,1715487465
369,Nyurba,63.2842,118.3319,4.6,52,100,4.93,RU,1715487466
370,Reynosa,26.0833,-98.2833,27.21,77,100,6.17,MX,1715487300
371,Gadzhiyevo,69.2551,33.3362,0.02,85,96,1.23,RU,1715487468
372,Kuusamo,65.9667,29.1833,1.02,69,0,0.51,FI,1715487468
373,Billings Metropolitan Area,45.7833,-108.5007,17.87,46,75,5.14,US,1715487335
374,Nogliki,51.8333,143.1667,0.75,98,100,8.05,RU,1715487214
375,Cabo San Lucas,22.8909,-109.9124,25.9,59,76,5.97,MX,1715487471
376,Hwange,-18.3693,26.5019,16.52,49,0,0.6,ZW,1715487472
377,Lompoc,34.6391,-120.4579,13.16,95,100,3.09,US,1715487473
378,Bodaybo,57.8506,114.1933,8.26,68,100,0.75,RU,1715487474
379,Luanda,-8.8368,13.2343,25.0,100,75,1.03,AO,1715487442
380,São João da Barra,-21.6403,-41.0511,24.14,92,0,4.42,BR,1715487476
381,Mary,37.0,62.5,22.02,34,0,5.85,TM,1715487477
382,Flin Flon,54.7682,-101.865,5.94,63,45,6.33,CA,1715487478
383,Shaowu,27.3409,117.4831,22.68,94,100,1.45,CN,1715487376
384,Regeneração,-6.2378,-42.6883,22.87,77,100,0.97,BR,1715487480
385,Coari,-4.085,-63.1414,24.55,97,86,0.39,BR,1715487400
386,Margate,51.3813,1.3862,14.61,87,98,4.91,GB,1715487481
387,Wellington,-41.2866,174.7756,12.81,76,75,1.54,NZ,1715487372
388,Wynyard,-41.0,145.7167,15.46,71,3,4.65,AU,1715487483
389,Whangarei,-35.7317,174.3239,14.18,68,55,0.53,NZ,1715487484
390,Valle de La Pascua,9.2155,-66.0073,27.05,70,79,2.01,VE,1715487485
391,Ilhabela,-23.7781,-45.3581,24.59,63,0,1.79,BR,1715487466
392,Box Elder,41.5005,-112.8764,17.32,49,68,3.01,US,1715487487
393,Santa Rosalía,27.3167,-112.2833,22.64,31,79,2.4,MX,1715487488
394,Basco,20.4487,121.9702,28.66,85,72,6.74,PH,1715487489
395,Murzuk,25.9155,13.9184,19.37,37,1,4.52,LY,1715487490
396,Port Hueneme,34.1478,-119.1951,16.85,89,100,2.06,US,1715487491
397,Woolgoolga,-30.1106,153.2007,20.93,68,20,3.45,AU,1715487491
398,Khovd,48.0056,91.6419,27.55,7,100,3.78,MN,1715487492
399,Chonglong,29.7806,104.8522,24.81,59,94,4.16,CN,1715487493
400,Parry Sound,45.3501,-80.033,10.03,87,100,2.37,CA,1715487494
401,Carnarvon,-24.8667,113.6333,28.76,32,100,4.45,AU,1715487494
402,Bartlesville,36.7473,-95.9808,21.12,74,0,0.0,US,1715487495
403,Mombetsu,44.3525,143.3525,18.53,55,100,2.64,JP,1715487336
404,Puerto Santa,-8.9906,-78.6456,18.04,91,88,3.18,PE,1715487497
405,Karratha,-20.7377,116.8463,29.82,29,10,8.32,AU,1715487497
406,Maxixe,-23.8597,35.3472,21.96,86,61,1.69,MZ,1715487223
407,Retreat,38.8245,-85.8533,13.54,82,41,2.17,US,1715487500
408,Puerto Baquerizo Moreno,-0.9,-89.6,23.15,85,100,4.16,EC,1715487501
409,Mörön,49.6342,100.1625,25.62,16,39,4.21,MN,1715487501
410,Al Khārijah,25.4514,30.5464,22.84,33,0,4.16,EG,1715487502
411,Zeya,53.75,127.2667,14.71,30,85,3.02,RU,1715487503
412,Takāb,36.4009,47.1133,16.25,46,53,2.99,IR,1715487504
413,Yeniseysk,58.4497,92.1703,9.97,49,30,3.58,RU,1715487505
414,Greenville,35.6127,-77.3663,16.19,87,100,3.6,US,1715487280
415,Opuwo,-18.0607,13.84,18.01,29,0,3.48,NA,1715487506
416,La Passe,45.5549,-0.8967,16.13,92,100,4.45,FR,1715487507
417,Nagqu Prefecture,31.5,92.0,5.47,13,14,4.43,CN,1715487508
418,Pontes e Lacerda,-15.2261,-59.3353,22.16,65,5,0.89,BR,1715487509
419,Hilo,19.7297,-155.09,23.94,94,100,4.47,US,1715487510
420,Alice Springs,-23.7,133.8833,21.75,26,6,5.66,AU,1715487510
421,Nephi,39.7102,-111.8363,9.86,67,80,1.68,US,1715487511
422,Tidjikja,18.5564,-11.4271,31.31,17,56,3.92,MR,1715487512
423,Zouérat,22.7187,-12.4521,23.33,39,2,5.08,MR,1715487513
424,Mejit,10.2753,170.8646,27.63,81,86,7.26,MH,1715487515
425,Olavarría,-36.8927,-60.3225,4.17,88,6,3.14,AR,1715487515
426,Kemerovo,55.3333,86.0833,14.83,24,0,5.0,RU,1715487516
427,Brooks,50.5834,-111.8851,13.99,55,100,5.66,CA,1715487445
428,North Bend,43.4065,-124.2243,14.02,94,100,3.6,US,1715487518
429,San Juan de Miraflores,-12.1629,-76.9635,19.54,81,77,1.28,PE,1715487519
430,Itapetinga,-15.2489,-40.2478,20.51,96,7,0.44,BR,1715487396
431,Duba,27.3513,35.6901,26.71,54,0,2.78,SA,1715487521
432,Palu,-0.8917,119.8707,31.43,74,57,1.79,ID,1715487521
433,Datong,40.0936,113.2914,18.22,14,0,4.09,CN,1715487522
434,Bikenibeu Village,1.3673,173.1241,29.98,74,75,2.57,KI,1715487523
435,Selfoss,63.9331,-20.9971,7.8,86,100,3.25,IS,1715487524
436,Massawa,15.6097,39.45,31.51,67,14,0.95,ER,1715487525
437,Dinguiraye,11.3,-10.7167,27.9,54,94,1.53,GN,1715487526
438,Puerto Ayacucho,5.6639,-67.6236,25.98,85,100,1.46,VE,1715487527
439,El Nido,11.1858,119.3956,31.73,66,99,4.86,PH,1715487528
440,Chamdo,31.1667,97.2333,9.67,26,1,2.15,CN,1715487528
441,Shetpe,44.1667,52.1167,21.13,33,91,12.81,KZ,1715487529
442,Ar Ruţbah,33.0381,40.2848,20.76,26,23,5.02,IQ,1715487530
443,Es Castell,39.8795,4.2854,14.38,100,0,2.57,ES,1715487531
444,Knjazevac,43.5648,22.2502,14.49,94,100,2.26,RS,1715487532
445,Grand Falls-Windsor,48.9332,-55.6649,1.95,89,100,1.34,CA,1715487533
446,Mayya,61.7333,130.2811,4.62,50,97,1.21,RU,1715487500
447,Touros,-5.1989,-35.4608,24.66,93,17,3.01,BR,1715487262
448,Moriki,12.8741,6.4875,30.65,48,100,4.79,NG,1715487536
449,Tilcara,-23.5776,-65.3509,9.94,18,23,5.45,AR,1715487536
450,Mogok,22.9167,96.5,27.36,41,18,1.64,MM,1715487537
451,Turpan,42.9333,89.1667,36.14,7,0,1.53,CN,1715487538
452,Tual,-5.6667,132.75,27.94,81,100,8.35,ID,1715487539
453,Kita,13.0349,-9.4895,32.47,20,71,1.52,ML,1715487540
454,Rongelap,11.1635,166.8941,27.5,81,78,6.96,MH,1715487541
455,Daru,-9.0763,143.2092,28.12,74,100,6.35,PG,1715487542
456,Iskateley,67.6803,53.1512,-3.88,94,98,5.36,RU,1715487542
457,Severo-Yeniseyskiy,60.3725,93.0408,5.88,63,61,3.13,RU,1715487543
458,Dunedin,-45.8742,170.5036,12.11,67,96,1.79,NZ,1715487544
459,Lexington Park,38.2668,-76.4538,13.82,80,100,5.14,US,1715487497
460,La Punta,-33.1837,-66.3127,6.9,73,2,5.46,AR,1715487546
461,Thunder Bay,48.4001,-89.3168,8.13,74,94,1.8,CA,1715487263
462,Kristiansund,63.1115,7.732,11.36,82,100,1.54,NO,1715487547
463,Shijiang,27.0819,110.7933,23.52,62,100,1.05,CN,1715487548
464,Coronel Dorrego,-38.7187,-61.2873,5.67,84,73,2.15,AR,1715487549
465,Guerrero Negro,27.9769,-114.0611,15.51,83,0,7.94,MX,1715487550
466,Le Port,-20.9373,55.2919,24.98,72,6,1.58,RE,1715487551
467,Hickory,35.7332,-81.3412,16.05,80,0,0.0,US,1715487379
468,Palembang,-2.9167,104.7458,31.05,74,40,2.57,ID,1715487553
469,Iranshahr,27.2025,60.6848,32.19,18,0,4.12,IR,1715487553
470,Eyl,7.9803,49.8164,29.26,70,99,1.84,SO,1715487554
471,Ayr,55.4627,-4.6339,15.17,82,20,3.6,GB,1715487555
472,Porto Velho,-8.7619,-63.9039,25.03,94,0,0.0,BR,1715487271
473,Kari,11.2471,10.561,28.6,48,99,2.79,NG,1715487557
474,Minas de Marcona,-15.2119,-75.1103,13.12,90,86,6.52,PE,1715487437
475,Mandera,3.9366,41.867,26.86,74,69,4.75,KE,1715487559
476,Illapel,-31.6308,-71.1653,7.29,85,0,0.65,CL,1715487384
477,Huanggang,23.677,116.9996,28.94,70,100,3.24,CN,1715487560
478,Thinadhoo,0.5333,72.9333,29.29,75,46,4.59,MV,1715487561
479,Papao,-17.75,-149.55,27.82,78,0,6.5,PF,1715487562
480,Las Tablas,7.7667,-80.2833,27.87,99,100,6.27,PA,1715487563
481,Gay,51.4666,58.4552,12.29,51,10,4.6,RU,1715487564
482,Chulakkurgan,43.765,69.1814,18.26,48,96,2.48,KZ,1715487565
483,Talara,-4.5772,-81.2719,20.76,82,98,7.06,PE,1715487566
484,Port Douglas,-16.4833,145.4667,25.1,81,74,6.26,AU,1715487567
485,Pak Phanang,8.3511,100.202,33.01,65,98,3.65,TH,1715487568
486,Puerto Armuelles,8.2833,-82.8667,26.72,77,100,1.79,PA,1715487569
487,Springs,-26.25,28.4,15.93,65,93,1.56,ZA,1715487570
488,Heroica Caborca,30.7167,-112.15,24.69,19,0,3.41,MX,1715487571
489,Jayapura,-2.5333,140.7,32.66,86,99,2.88,ID,1715487572
490,Montrose,38.4166,-108.2673,-0.24,87,100,1.4,US,1715487574
491,Rodna,47.4167,24.8167,8.54,94,100,1.9,RO,1715487574
492,Antsiranana,-12.2787,49.2917,25.66,76,69,6.41,MG,1715487575
493,Warrnambool,-38.3833,142.4833,15.61,67,29,2.35,AU,1715487576
494,Lucheng,31.2336,117.2806,24.33,36,99,3.85,CN,1715487577
495,Santiago de Cuba,20.0247,-75.8219,28.06,78,20,1.03,CU,1715487578
496,Zhangaözen,43.3,52.8,23.27,26,81,11.97,KZ,1715487579
497,Dalbandin,28.8947,64.4101,26.42,13,0,1.48,PK,1715487580
498,Itoman,26.1247,127.6694,30.43,78,75,7.2,JP,1715487581
499,Bukama,-9.2,25.85,20.83,74,68,1.17,CD,1715487582
500,Geraldton,-28.7667,114.6,32.23,13,100,10.29,AU,1715487583
501,San Luis de la Loma,17.2706,-100.8939,25.64,67,53,1.57,MX,1715487584
502,Saposoa,-6.934,-76.7716,25.24,83,98,0.81,PE,1715487585
503,Tamanghasset,22.785,5.5228,21.95,16,0,3.09,DZ,1715487585
504,San Julián,21.0167,-102.1667,24.83,25,64,4.29,MX,1715487586
505,Harrisburg,40.2737,-76.8844,11.47,93,100,3.6,US,1715487366
506,Tintafor,8.6267,-13.215,27.51,86,84,2.47,SL,1715487588
507,Province of Mantua,45.1667,10.7833,17.58,81,35,1.58,IT,1715487589
508,Ejura,7.3856,-1.3562,24.97,90,100,1.38,GH,1715487379
509,Tshabong,-26.05,22.45,17.83,18,0,3.41,BW,1715487591
510,Coronel Suárez,-37.4547,-61.9334,4.36,81,67,2.78,AR,1715487302
511,Inverloch,-38.6333,145.7167,21.7,67,61,2.69,AU,1715487593
512,Lahaina,20.8783,-156.6825,25.58,93,73,1.85,US,1715487594
513,Saint-Philippe,-21.3585,55.7679,23.77,80,62,5.64,RE,1715487595
514,Nuuk,64.1835,-51.7216,-0.66,86,75,5.66,GL,1715487596
515,Chesma,53.8111,60.6533,13.24,46,49,8.17,RU,1715487596
516,Ýpsonas,34.6884,32.9574,19.54,73,20,5.14,CY,1715487597
517,Colorno,44.9263,10.3768,15.5,76,24,0.81,IT,1715487598
518,Ghat,24.9647,10.1728,21.32,25,0,1.31,LY,1715487599
519,Villa Gesell,-37.2639,-56.973,10.59,66,15,6.21,AR,1715487408
520,Funafuti,-8.5243,179.1942,28.0,89,75,0.0,TV,1715487601
521,Kamina,-8.7386,24.9906,18.56,76,74,1.59,CD,1715487602
522,Kidal,18.4411,1.4078,30.14,9,4,5.26,ML,1715487603
523,Beaufort West,-32.3567,22.583,8.95,71,1,2.68,ZA,1715487604
524,Obock,12.25,43.0833,25.55,66,88,4.28,DJ,1715487601
525,Gubin,51.9496,14.7284,11.25,58,70,3.68,PL,1715487437
526,São Jerônimo,-29.9592,-51.7222,17.86,100,100,0.62,BR,1715487599
527,Onega,63.9061,38.1404,0.25,82,95,3.9,RU,1715487608
528,Maunabo,18.0072,-65.8993,27.9,96,25,1.1,PR,1715487609
529,Mezhdurechensk,53.6942,88.0603,14.83,63,99,2.43,RU,1715487610
530,Shannon,52.7039,-8.8642,13.0,94,75,1.03,IE,1715487611
531,Bonthe,7.5264,-12.505,25.05,92,100,3.97,SL,1715487611
532,Sauðarkrokur,65.7461,-19.6394,4.49,99,100,2.13,IS,1715487612
533,Lamu,-2.2717,40.902,26.81,82,64,6.17,KE,1715487613
534,Teluk Nibung,3.001,99.8164,25.39,90,100,1.42,ID,1715487614
535,Savannah,32.0835,-81.0998,18.3,85,0,2.57,US,1715487484
536,Hiratachō,35.4333,132.8167,19.01,88,75,0.51,JP,1715487616
537,Along,28.1667,94.7667,28.15,41,27,0.41,IN,1715487616
538,Volnovakha,47.601,37.4967,8.76,66,46,6.11,UA,1715487617
539,Antigonish,45.6169,-61.9986,4.34,91,100,1.34,CA,1715487618
540,Acaraú,-2.8856,-40.12,25.27,85,34,4.09,BR,1715487487
541,Le Vauclin,14.5452,-60.8388,28.03,74,20,4.63,MQ,1715487620
542,Mulanje,-16.0316,35.5,17.83,73,0,1.54,MW,1715487621
543,San Sebastián de La Gomera,28.0916,-17.1133,20.21,72,0,1.03,ES,1715487622
544,Kokpekty,48.75,82.4,15.76,44,100,7.28,KZ,1715487622
545,Hanting,36.7708,119.2108,25.0,20,0,4.11,CN,1715487623
546,Kalemie,-5.9475,29.1947,22.22,86,46,1.09,CD,1715487624
547,Palikir,6.9248,158.1611,28.47,89,100,6.69,FM,1715487625
548,Kwang Binh,17.4833,106.6,32.25,60,23,4.72,VN,1715487626
549,Ar Ruseris,11.8659,34.3869,32.14,34,80,2.05,SD,1715487627
550,Kingston,17.997,-76.7936,28.53,79,40,3.09,JM,1715487440
551,Esim,4.8699,-2.2405,26.87,88,93,2.34,GH,1715487629
552,Mwene-Ditu,-7.0,23.45,20.37,79,14,1.5,CD,1715487375
553,Dawei,14.0833,98.2,34.81,47,25,3.5,MM,1715487630
554,Camaná,-16.6228,-72.7111,17.81,94,30,4.5,PE,1715487632
555,Korla,41.7597,86.1469,30.84,6,73,8.74,CN,1715487633
556,Inongo,-1.95,18.2667,22.78,89,83,1.57,CD,1715487634
557,Karatuzskoye,53.6072,92.8667,11.88,88,100,8.05,RU,1715487635
558,St. John's,47.5649,-52.7093,1.65,97,100,5.66,CA,1715487560
559,Carutapera,-1.195,-46.02,24.34,95,86,1.08,BR,1715487636
560,Magistral'nyy,56.1725,107.4458,9.09,58,100,2.75,RU,1715487637
561,Revelstoke,50.9832,-118.2023,17.01,48,0,2.57,CA,1715487638
562,Cooma,-36.2333,149.1333,11.57,65,95,3.66,AU,1715487639
563,Sauteurs,12.2167,-61.6333,27.39,80,7,8.0,GD,1715487640
564,Masterton,-40.9597,175.6575,12.71,68,90,1.16,NZ,1715487641
565,Puerto Madero,14.7208,-92.4215,28.11,78,20,0.0,MX,1715487643
566,Shiqian,27.5225,108.2281,17.25,88,100,0.94,CN,1715487643
567,Edwardsville,38.8114,-89.9532,18.71,68,0,1.34,US,1715487516
568,Álamos,27.0167,-108.9333,26.57,18,99,1.15,MX,1715487645
569,Usogorsk,63.4106,48.6872,-1.13,94,100,2.34,RU,1715487646
570,Frontera,26.9333,-101.45,22.72,78,65,0.45,MX,1715487541
571,Penzance,50.1186,-5.5371,12.64,91,12,1.47,GB,1715487648
572,Nyagan,62.1406,65.3936,1.95,78,94,1.96,RU,1715487649
573,Sidi Ifni,29.3797,-10.173,17.86,88,65,1.97,MA,1715487650
574,Qui Nhon,13.7667,109.2333,31.74,59,72,4.57,VN,1715487651
575,Syracuse,37.0881,15.2792,16.0,74,0,2.08,IT,1715487653
576,Ilebo,-4.3167,20.5833,22.73,97,100,0.65,CD,1715487654
577,San Antonio,29.4241,-98.4936,22.17,81,100,4.12,US,1715487623
578,Gazipaşa,36.2694,32.3179,16.05,88,40,2.57,TR,1715487499
579,Summerlin South,36.1027,-115.3811,24.19,24,5,2.58,US,1715487499
580,Jimeta,9.2833,12.4667,27.06,69,99,3.01,NG,1715487657
581,Tārānagar,28.6709,75.0351,36.24,22,3,3.99,IN,1715487658
582,South Weber,41.1324,-111.9302,16.44,57,0,3.09,US,1715487659
583,Ambon City,-3.6954,128.1814,29.08,79,40,2.57,ID,1715487660
584,Ancud,-41.8697,-73.8203,6.44,82,98,2.12,CL,1715487467
585,Nelson Bay,-32.7167,152.15,21.67,81,74,0.89,AU,1715487661
586,Kisangani,0.5167,25.2,21.77,92,22,0.95,CD,1715487662
587,Kupang,-10.1667,123.5833,35.32,49,20,8.75,ID,1715487663
588,Quepos,9.4236,-84.1652,24.92,95,100,1.99,CR,1715487664
589,Pimentel,-6.8367,-79.9342,19.16,82,0,7.2,PE,1715487664
590,Soure,-0.7167,-48.5233,25.69,91,100,1.95,BR,1715487581
591,Preobrazheniye,42.9019,133.9064,14.32,66,58,4.65,RU,1715487666
592,Whakatane,-37.9585,176.9854,15.28,72,0,0.45,NZ,1715487667
593,Singkil,-7.9855,111.4161,31.46,64,31,0.83,ID,1715487668
594,Fairwood,47.4484,-122.1573,22.58,49,0,5.14,US,1715487668
595,Nova Praha,48.5682,32.9027,6.72,69,11,5.33,UA,1715487669
596,Bat Khela,34.6167,71.9714,23.88,50,21,1.44,PK,1715487670
597,Coquimbo,-29.9533,-71.3436,13.15,71,0,3.31,CL,1715487398
598,Pekanbaru,0.5333,101.45,30.18,79,20,3.6,ID,1715487672
599,Tabuk,17.4189,121.4443,35.27,39,15,3.39,PH,1715487672
600,Novaya Igirma,57.1334,103.9112,11.75,90,100,4.85,RU,1715487674
601,Tutóia,-2.7619,-42.2744,25.45,90,87,2.8,BR,1715487675
602,Vanimo,-2.6741,141.3028,28.96,90,60,3.69,PG,1715487677
