City_ID,City,Lat,Lng,Max Temp,Humidity,Cloudiness,Wind Speed,Country,Date
0,Sharlyk,52.9167,54.75,8.64,82,7,3.36,RU,1714589042
1,Waitangi,-43.9535,-176.5597,12.68,97,100,3.13,NZ,1714589043
2,Mount Isa,-20.7333,139.5,20.87,56,40,5.66,AU,1714589043
3,West Island,-12.1568,96.8225,27.99,94,75,3.6,CC,1714589044
4,Punta Arenas,-53.15,-70.9167,5.06,70,75,3.09,CL,1714588848
5,Kirando,-7.4167,30.6,23.81,69,37,3.46,TZ,1714589046
6,Olonkinbyen,70.9221,-8.7187,-0.9,99,100,5.19,SJ,1714589046
7,George Town,5.4112,100.3354,28.97,79,20,1.54,MY,1714588925
8,Edinburgh of the Seven Seas,-37.0676,-12.3116,13.11,60,48,12.58,SH,1714589048
9,Grytviken,-54.2811,-36.5092,-2.29,80,33,1.09,GS,1714589049
10,Bredasdorp,-34.5322,20.0403,15.54,85,100,1.53,ZA,1714589050
11,Lázaro Cárdenas,17.9583,-102.2,29.48,49,100,4.54,MX,1714589051
12,Adamstown,-25.066,-130.1015,22.58,82,93,1.92,PN,1714589051
13,Wailua Homesteads,22.0669,-159.378,25.44,86,75,4.63,US,1714589052
14,La Foa,-21.7108,165.8276,19.8,80,17,0.71,NC,1714589053
15,Papatowai,-46.5619,169.4708,7.08,88,84,4.56,NZ,1714589054
16,Labrador City,52.9463,-66.9114,1.95,82,100,4.12,CA,1714589055
17,Invercargill,-46.4,168.35,8.9,85,88,4.47,NZ,1714589056
18,Hermanus,-34.4187,19.2345,16.37,83,100,2.36,ZA,1714589057
19,Taman',45.2117,36.7161,15.24,69,17,9.49,RU,1714589058
20,Khalkhāl,37.6189,48.5258,10.87,46,70,2.93,IR,1714589058
21,College,64.8569,-147.8028,3.18,73,100,5.66,US,1714589059
22,Berdigestyakh,62.0989,126.6992,-2.8,93,100,3.2,RU,1714589060
23,Ribeira Grande,38.5167,-28.7,18.22,88,75,10.28,PT,1714589061
24,Ambon City,-3.6954,128.1814,27.15,15,40,3.6,ID,1714589062
25,Bam,29.106,58.357,26.28,19,74,1.51,IR,1714589063
26,Calama,-22.4667,-68.9333,22.27,23,0,8.75,CL,1714589048
27,Aasiaat,68.7098,-52.8699,-6.23,72,84,3.74,GL,1714589065
28,Mossamedes,-15.1961,12.1522,24.25,76,1,2.7,AO,1714589066
29,Holualoa,19.6228,-155.9522,25.48,74,0,1.54,US,1714589066
30,Santa Cruz de la Sierra,-17.8,-63.1667,33.03,58,40,9.77,BO,1714589067
31,Howard Springs,-12.497,131.047,26.6,70,98,3.78,AU,1714589068
32,Nadym,65.5333,72.5167,-15.58,96,99,3.39,RU,1714589069
33,Ancud,-41.8697,-73.8203,10.04,72,21,3.99,CL,1714589069
34,Kalengwa,-13.4659,25.0027,16.25,45,0,2.22,ZM,1714589070
35,Iqaluit,63.7506,-68.5145,-2.15,63,0,4.12,CA,1714588796
36,Chonchi,-42.6128,-73.8092,9.56,82,57,2.16,CL,1714589072
37,Ulsteinvik,62.3432,5.8487,14.5,75,100,1.34,NO,1714589073
38,Bethel,41.3712,-73.414,26.31,56,75,2.06,US,1714588874
39,Nikolayevsk-on-Amur,53.1406,140.73,2.34,61,92,2.24,RU,1714589075
40,Howrah,22.5892,88.3103,32.0,51,40,6.17,IN,1714589076
41,Fale old settlement,-9.3852,-171.2468,29.62,76,78,6.89,TK,1714589077
42,Stanley,54.868,-1.6985,13.49,85,75,3.6,GB,1714589077
43,Ta`ū,-14.2336,-169.5144,29.22,72,82,5.75,AS,1714589078
44,Queenstown,-31.8976,26.8753,13.86,60,7,0.49,ZA,1714589079
45,Tôlanaro,-25.0319,46.9987,24.04,83,0,1.03,MG,1714589081
46,Port-aux-Français,-49.35,70.2167,3.44,56,98,12.52,TF,1714589081
47,Blackmans Bay,-43.0167,147.3167,7.07,82,12,2.57,AU,1714589082
48,Houghton,47.1219,-88.569,9.29,95,100,11.83,US,1714589001
49,Phan Rang-Thap Cham,11.5667,108.9833,26.57,85,100,1.28,VN,1714589084
50,Pekanbaru,0.5333,101.45,25.18,100,100,0.51,ID,1714589085
51,Puerto Natales,-51.7236,-72.4875,6.25,61,20,1.54,CL,1714589086
52,Jamestown,42.097,-79.2353,23.9,34,20,5.14,US,1714589086
53,Badger,64.8,-147.5333,3.14,78,100,5.66,US,1714589087
54,Pimentel,-6.8367,-79.9342,25.16,65,0,10.29,PE,1714589088
55,Tiksi,71.6872,128.8694,-15.5,98,76,0.83,RU,1714589089
56,Taroa,8.7058,171.2275,27.77,79,100,8.66,MH,1714589089
57,Lüderitz,-26.6481,15.1594,20.59,57,0,4.25,NA,1714589090
58,Puerto Ayora,-0.7393,-90.3518,26.98,88,79,3.13,EC,1714589091
59,Albany,42.6001,-73.9662,23.1,60,100,1.34,US,1714588820
60,Qaqortoq,60.7167,-46.0333,3.11,78,48,1.8,GL,1714589057
61,Bilibino,68.0546,166.4372,-1.06,93,100,1.34,RU,1714589094
62,Muisne,0.6,-80.0333,27.5,84,88,4.86,EC,1714589095
63,Ushuaia,-54.8,-68.3,4.81,75,20,2.06,AR,1714588808
64,Ixtapa,20.7,-105.2,28.57,37,40,2.06,MX,1714589097
65,Monte Alegre de Minas,-18.8706,-48.8808,30.72,34,6,1.39,BR,1714589098
66,Hammerfest,70.6634,23.6821,1.25,100,100,4.12,NO,1714589032
67,Lensk,60.7253,114.9278,-8.19,97,31,1.44,RU,1714589099
68,Hamilton,39.1834,-84.5333,28.61,50,0,4.63,US,1714589100
69,Carnarvon,-24.8667,113.6333,25.43,64,100,2.64,AU,1714589101
70,Puerto Baquerizo Moreno,-0.9,-89.6,28.55,70,20,4.12,EC,1714589102
71,New Norfolk,-42.7826,147.0587,7.72,98,1,1.0,AU,1714589103
72,Saint-Joseph,-21.3667,55.6167,23.21,75,100,4.16,RE,1714589104
73,Saipan,15.1355,145.701,27.39,89,40,4.63,MP,1714589105
74,Port Lincoln,-34.7333,135.8667,13.98,82,45,6.74,AU,1714589106
75,Port Isabel,26.0734,-97.2086,32.04,70,40,8.75,US,1714589107
76,Valderice,38.0401,12.6151,17.5,82,20,2.57,IT,1714589108
77,Barranca,-10.75,-77.7667,22.14,76,22,5.75,PE,1714589109
78,Kazanskoye,55.6448,69.235,5.94,86,100,4.68,RU,1714589110
79,Kavalerovo,44.2661,135.0572,5.15,65,0,1.1,RU,1714589110
80,Karkira,36.9292,6.5856,15.28,76,16,2.64,DZ,1714589111
81,Richfield,44.8833,-93.283,17.28,57,40,8.23,US,1714588997
82,Åkrehamn,59.2667,5.1833,20.14,40,0,4.12,NO,1714589113
83,Xilin Hot,43.9667,116.0333,12.53,22,0,6.55,CN,1714589114
84,Port Alfred,-33.5906,26.891,17.88,75,5,1.2,ZA,1714589115
85,Soyo,-6.1349,12.3689,26.83,88,100,3.61,AO,1714589116
86,Mount Gambier,-37.8333,140.7667,12.87,64,100,4.13,AU,1714589117
87,Chamdo,31.1667,97.2333,3.29,52,100,2.98,CN,1714589118
88,Isafjordur,66.0755,-23.124,8.02,46,75,0.0,IS,1714589118
89,Tsiombe,-25.3,45.4833,21.59,90,0,0.97,MG,1714589119
90,Yellowknife,62.456,-114.3525,5.79,68,20,3.09,CA,1714589120
91,Abashiri,44.0213,144.2697,3.74,75,1,3.55,JP,1714589121
92,Aripuanã,-9.1667,-60.6333,30.32,72,72,0.39,BR,1714589122
93,Dunedin,-45.8742,170.5036,7.67,81,97,1.34,NZ,1714589123
94,Mhamid,29.82,-5.72,26.93,10,0,4.48,MA,1714589124
95,Mount Darwin,-16.7725,31.5838,15.86,50,2,0.61,ZW,1714589124
96,Kavaratti,10.5669,72.642,30.43,71,100,5.34,IN,1714589125
97,Keflavik,64.0049,-22.5624,7.24,70,75,6.69,IS,1714589126
98,Port Saint John's,-31.6229,29.5448,22.08,81,100,1.0,ZA,1714589127
99,Kruisfontein,-34.0033,24.7314,13.82,87,99,0.89,ZA,1714589128
100,Klyuchi,52.2667,79.1667,2.31,81,100,5.52,RU,1714589129
101,Halfway,39.6207,-77.7589,27.99,42,0,1.79,US,1714589130
102,Tazovsky,67.4667,78.7,-14.21,95,100,4.72,RU,1714589131
103,Pizhou,34.3114,117.9503,11.97,57,100,2.48,CN,1714589132
104,Béchar,31.6167,-2.2167,27.18,12,0,6.17,DZ,1714589133
105,Jiazi,22.8779,116.067,22.3,92,96,6.98,CN,1714589134
106,Xining,36.6167,101.7667,7.21,61,100,0.34,CN,1714589135
107,Ola,59.5833,151.2833,-3.25,87,100,3.59,RU,1714589136
108,Xiaoshi,41.2971,124.1209,9.97,48,0,2.91,CN,1714589137
109,Ust-Nera,64.5667,143.2,-7.61,97,100,1.83,RU,1714589138
110,Tralee,52.2704,-9.7026,10.42,78,7,3.66,IE,1714589139
111,Puerto Armuelles,8.2833,-82.8667,31.99,83,100,0.45,PA,1714589140
112,Tobelo,1.7284,128.0095,27.05,85,92,0.54,ID,1714589140
113,Usinsk,65.9939,57.5281,-6.63,86,100,3.13,RU,1714589141
114,Morant Bay,17.8815,-76.4093,27.79,84,31,3.34,JM,1714589142
115,Beloyarskiy,63.7119,66.6722,-10.0,97,100,1.34,RU,1714589143
116,Las Margaritas,16.3167,-91.9833,30.07,28,91,4.4,MX,1714589144
117,Arkhangelsk,64.5401,40.5433,1.18,93,40,4.0,RU,1714589145
118,Preston,53.7667,-2.7167,16.21,76,75,2.57,GB,1714589146
119,Santa Ana,33.7456,-117.8678,23.56,66,100,4.12,US,1714589030
120,Whitehorse,60.7161,-135.0538,8.94,46,20,5.66,CA,1714589147
121,Tual,-5.6667,132.75,28.11,79,99,4.97,ID,1714589148
122,Lebu,-37.6167,-73.65,10.83,60,1,4.27,CL,1714589149
123,Ilulissat,69.2167,-51.1,-4.99,63,75,2.06,GL,1714589150
124,Santa Isabel,-23.3156,-46.2214,31.84,47,0,2.5,BR,1714589151
125,Kerikeri,-35.2268,173.9474,11.06,91,4,2.58,NZ,1714589152
126,Zdolbuniv,50.5206,26.2425,13.55,67,0,3.83,UA,1714589153
127,Geraldton,-28.7667,114.6,21.23,83,40,7.2,AU,1714589153
128,Avarua,-21.2078,-159.775,27.03,61,20,6.17,CK,1714589150
129,Ljusdal,61.8288,16.0913,10.0,74,94,1.8,SE,1714589107
130,Crucecita,-28.95,-58.9833,24.47,93,96,4.08,AR,1714589156
131,Khandyga,62.6667,135.6,-6.16,98,59,1.45,RU,1714589157
132,Cabo San Lucas,22.8909,-109.9124,31.61,26,0,2.06,MX,1714589134
133,Hawaiian Paradise Park,19.5933,-154.9731,25.57,93,100,3.09,US,1714589159
134,Margaret River,-33.95,115.0667,18.23,93,74,3.83,AU,1714589160
135,Talnakh,69.4865,88.3972,-18.22,94,100,1.74,RU,1714589161
136,Vorkuta,67.5,64.0,-19.38,100,34,2.24,RU,1714588871
137,Tuding,16.4103,120.6442,16.38,89,4,1.79,PH,1714589162
138,Nagqu Prefecture,31.5,92.0,1.89,22,100,9.17,CN,1714589163
139,Port Mathurin,-19.6833,63.4167,25.93,67,94,7.77,MU,1714589164
140,Enewetak,11.3474,162.3373,27.38,77,82,8.87,MH,1714589165
141,Tonghae,37.5439,129.1069,9.06,61,0,2.77,KR,1714589166
142,Utrik,11.2278,169.8474,27.2,81,89,8.63,MH,1714589167
143,Susuman,62.7833,148.1667,-7.23,94,100,1.34,RU,1714589168
144,Dakhla,23.6848,-15.958,20.01,73,93,10.8,EH,1714589168
145,El Rosario,24.2556,-107.1828,31.04,25,56,5.66,MX,1714589169
146,Newman,37.3138,-121.0208,22.23,27,0,10.73,US,1714589170
147,Karatau,43.1667,70.4667,10.25,39,100,2.57,KZ,1714589171
148,Kas,36.2018,29.6377,21.76,61,100,3.99,TR,1714589172
149,Bulungu,-4.55,18.6,27.24,59,100,1.36,CD,1714589173
150,Kapaa,22.0752,-159.319,26.18,85,75,4.63,US,1714589174
151,Petropavlovsk-Kamchatskiy,53.0452,158.6483,3.21,54,100,6.71,RU,1714589175
152,Rotonda West,26.8837,-82.2901,31.7,41,0,4.12,US,1714589176
153,East London,-33.0153,27.9116,16.52,88,0,2.57,ZA,1714589107
154,Nouadhibou,20.931,-17.0347,18.71,76,0,11.44,MR,1714589177
155,Brisas de Zicatela,15.8369,-97.0419,32.29,55,40,3.09,MX,1714589178
156,Rio Grande,-32.035,-52.0986,25.06,96,100,1.36,BR,1714589101
157,Santo Antônio,-6.3106,-35.4789,27.73,78,99,4.06,BR,1714589180
158,Saint Lawrence,36.0553,14.204,17.67,88,0,5.3,MT,1714589181
159,Takayama,36.1333,137.25,7.51,93,100,2.36,JP,1714589182
160,Gardez,33.5974,69.2259,9.32,58,0,1.89,AF,1714589183
161,Saint Joseph,39.7686,-94.8466,21.25,46,40,4.63,US,1714589150
162,Peace River,56.2501,-117.286,6.17,87,100,4.12,CA,1714589185
163,Nālūt,30.3333,10.85,22.39,20,99,4.39,LY,1714589186
164,Kuta,-8.7233,115.1723,27.97,88,20,5.36,ID,1714589187
165,Ust'-Kulom,61.6864,53.6902,-2.01,85,100,2.4,RU,1714589188
166,Manāwar,22.2333,75.0833,31.54,15,20,6.96,IN,1714589189
167,Columbus,39.9612,-82.9988,28.13,42,75,8.23,US,1714589187
168,Atafu Village,-8.5421,-172.5159,29.68,77,98,6.58,TK,1714589191
169,Guerrero Negro,27.9769,-114.0611,20.2,51,15,4.32,MX,1714589048
170,Rongelap,11.1635,166.8941,27.22,76,100,8.5,MH,1714589192
171,Luoyang,34.6836,112.4536,14.3,54,100,0.67,CN,1714589194
172,Caucayá,-0.1934,-74.7819,24.77,94,100,0.56,CO,1714589195
173,Rémire-Montjoly,4.9167,-52.2667,31.02,70,75,5.66,GF,1714589196
174,Talakan,50.3167,130.3667,12.15,40,100,3.03,RU,1714589197
175,Sur,22.5667,59.5289,30.85,49,100,6.87,OM,1714589198
176,El Granada,37.5027,-122.4694,24.38,56,0,2.57,US,1714589199
177,Lospalos,-8.5186,127.0025,22.56,97,100,2.47,TL,1714589199
178,Vadsø,70.0744,29.7487,2.49,80,75,4.12,NO,1714589200
179,Naryan-Mar,67.6713,53.087,-9.38,92,100,2.24,RU,1714589201
180,Sorsk,54.0033,90.2467,-0.42,95,100,2.64,RU,1714589202
181,Duartina,-22.4144,-49.4039,35.64,34,1,3.0,BR,1714589203
182,Afaahiti,-17.75,-149.2833,26.93,75,24,9.21,PF,1714589204
183,Ulladulla,-35.35,150.4667,11.91,86,0,3.62,AU,1714589205
184,Kolonia Town,6.964,158.206,29.0,79,75,4.12,FM,1714589206
185,Muaná,-1.5283,-49.2167,29.53,74,95,1.25,BR,1714589207
186,Machico,32.7,-16.7667,19.45,71,75,8.23,PT,1714589208
187,Kununurra,-15.7667,128.7333,25.99,47,36,4.12,AU,1714588956
188,Camargo,27.6667,-105.1667,30.98,5,72,6.86,MX,1714589210
189,Longyearbyen,78.2186,15.6401,0.91,75,75,1.54,SJ,1714589211
190,Anadyr,64.75,177.4833,-8.72,73,0,3.0,RU,1714589212
191,Francistown,-21.17,27.5079,20.55,31,0,3.69,BW,1714589212
192,Yuzhno-Kurilsk,44.0306,145.8556,3.54,74,0,2.2,RU,1714589213
193,Trincomalee,8.5711,81.2335,29.25,79,100,4.43,LK,1714589214
194,Coquimbo,-29.9533,-71.3436,16.85,67,0,3.6,CL,1714589008
195,Dayr az Zawr,35.3359,40.1408,23.28,55,53,2.93,SY,1714589216
196,Udachny,66.4167,112.4,-16.97,92,5,2.75,RU,1714589217
197,Coro,11.4045,-69.6734,31.55,64,51,9.2,VE,1714589218
198,Sevastopol,44.6,33.5333,16.67,44,93,2.24,UA,1714589219
199,Desaguadero,-16.5656,-69.0417,13.8,51,81,4.5,PE,1714589219
200,Nemuro,43.3236,145.575,3.41,83,0,4.93,JP,1714589220
201,Thompson,55.7435,-97.8558,1.09,86,100,5.14,CA,1714589221
202,Sheridan,44.8333,-106.9173,8.21,67,40,10.8,US,1714589222
203,Vilyuchinsk,52.9306,158.4028,4.03,92,100,2.42,RU,1714589223
204,Saldanha,-33.0117,17.9442,15.03,86,100,2.18,ZA,1714589223
205,Basco,20.4487,121.9702,28.03,75,5,1.96,PH,1714589224
206,Cecerleg,47.475,101.4542,6.34,40,0,3.02,MN,1714589225
207,Hasaki,35.7333,140.8333,11.27,79,100,10.94,JP,1714589226
208,Dalnerechensk,45.9339,133.7225,9.2,52,0,4.05,RU,1714589227
209,Nova Sintra,14.8667,-24.7167,23.39,79,0,12.06,CV,1714589228
210,Acaraú,-2.8856,-40.12,26.51,85,99,3.42,BR,1714589154
211,Ust'-Ilimsk,58.0006,102.6619,-2.53,58,100,1.34,RU,1714589230
212,Sydney Mines,46.2367,-60.2177,12.67,84,100,7.72,CA,1714589230
213,Urangan,-25.3,152.9,20.19,83,31,7.56,AU,1714589231
214,Minusinsk,53.7103,91.6875,7.36,98,100,3.53,RU,1714589110
215,Okakarara,-20.5833,17.4333,18.15,24,0,3.58,NA,1714589233
216,Bambanglipuro,-7.95,110.2833,25.2,91,92,2.68,ID,1714589233
217,Cuatro Ciénegas de Carranza,26.9833,-102.0833,33.64,33,98,3.18,MX,1714589234
218,Livingston,55.9029,-3.5226,12.14,97,100,3.09,GB,1714589231
219,Arraial do Cabo,-22.9661,-42.0278,29.98,65,0,7.72,BR,1714589236
220,Januária,-15.4833,-44.3667,33.7,27,0,2.03,BR,1714589237
221,Cobija,-11.0267,-68.7692,35.1,52,40,4.12,BO,1714589238
222,Crane,31.3974,-102.3501,31.37,40,5,8.47,US,1714589239
223,Melipilla,-33.7,-71.2167,19.25,77,100,3.37,CL,1714589240
224,Dili,-8.5586,125.5736,26.21,77,72,2.03,TL,1714589240
225,Kuanda,56.3161,116.0806,-6.39,83,10,1.65,RU,1714589241
226,Gaigeturi,33.4644,126.3183,13.03,76,0,4.12,KR,1714589242
227,Al Bardīyah,31.7561,25.0865,19.31,67,100,2.61,LY,1714589243
228,Prince Rupert,54.3161,-130.3201,10.83,77,100,2.06,CA,1714589244
229,Port Elizabeth,-33.918,25.5701,15.73,86,0,3.09,ZA,1714589245
230,Alice Springs,-23.7,133.8833,7.75,71,0,2.57,AU,1714589246
231,Az Zulfī,26.2995,44.8154,22.58,48,94,3.79,SA,1714589246
232,Khovd,48.0056,91.6419,11.1,42,97,5.24,MN,1714589247
233,Tyuratam,45.6507,63.3156,17.4,18,100,0.94,KZ,1714589248
234,Pacific Grove,36.6177,-121.9166,23.03,68,0,4.47,US,1714589249
235,Portland,45.5234,-122.6762,13.43,67,100,1.34,US,1714589229
236,Idrī,27.5,13.2667,29.51,23,100,13.53,LY,1714589251
237,Toliara,-23.35,43.6667,22.54,83,0,3.71,MG,1714589252
238,Chui,-33.6971,-53.4616,18.7,79,100,5.94,UY,1714589253
239,Kiunga,-6.1219,141.2906,23.42,100,100,0.29,PG,1714589254
240,Camayenne,9.535,-13.6878,27.53,83,64,5.2,GN,1714589254
241,Vichuga,57.2128,41.9301,3.6,78,13,2.89,RU,1714589255
242,Kumul,42.8,93.45,17.76,8,98,2.55,CN,1714589256
243,Quthing,-30.4,27.7003,15.14,48,23,1.78,LS,1714589257
244,Kaa-Khem,51.6833,94.7333,8.56,69,100,1.92,RU,1714589258
245,Soe,-9.8607,124.284,18.54,97,78,1.7,ID,1714589259
246,Mananara,-16.1667,49.7667,24.21,96,100,1.86,MG,1714589260
247,St. John's,47.5649,-52.7093,7.38,97,100,4.63,CA,1714589170
248,Nizhnyaya Omka,55.4338,74.9426,4.18,74,100,7.44,RU,1714589261
249,Hobyo,5.3505,48.5268,29.08,74,100,3.16,SO,1714589262
250,Bel Ombre,-4.6167,55.4167,27.91,83,20,1.54,SC,1714589263
251,Vorgashor,67.5833,63.95,-19.55,100,30,2.28,RU,1714589264
252,Gamay,12.3854,125.2979,24.21,90,98,1.68,PH,1714589265
253,Holmsund,63.706,20.3641,6.97,65,0,1.54,SE,1714589266
254,Taoudenni,22.6783,-3.9836,29.54,10,0,4.4,ML,1714589267
255,Tshikapa,-6.4167,20.8,24.23,59,100,1.04,CD,1714589268
256,Caravaca,38.1056,-1.8634,10.21,52,0,12.05,ES,1714589269
257,Belyy Yar,53.6039,91.3903,2.94,87,75,5.0,RU,1714589270
258,Bo`ka,40.8108,69.1986,17.91,31,14,2.75,UZ,1714589271
259,Gaimán,-43.2897,-65.4929,9.53,31,1,9.07,AR,1714589271
260,Sitka,57.0531,-135.33,9.94,76,40,3.09,US,1714589272
261,Bartica,6.4,-58.6167,33.18,47,73,2.25,GY,1714589273
262,Handan,36.6006,114.4678,14.55,43,3,3.2,CN,1714589274
263,Inari,68.906,27.0288,3.11,100,100,0.82,FI,1714589275
264,Libreville,0.3925,9.4537,29.01,89,75,4.12,GA,1714589275
265,Lapeer,43.0514,-83.3188,26.12,41,40,7.2,US,1714589254
266,Inderbor,48.55,51.7833,16.45,38,20,2.93,KZ,1714589277
267,Camapuã,-19.5314,-54.0439,31.91,42,0,3.69,BR,1714589278
268,Lapua,62.9693,23.0088,13.38,83,35,1.67,FI,1714589279
269,Cologne,50.9333,6.95,23.79,60,0,2.57,DE,1714589158
270,Mahibadhoo,3.7833,72.9667,28.86,76,10,3.37,MV,1714589281
271,Waingapu,-9.6567,120.2641,24.83,87,7,3.78,ID,1714589282
272,Arrondissement de Saint-Gaudens,43.0833,0.6667,6.12,97,100,2.21,FR,1714589283
273,Freetown,8.484,-13.2299,29.84,70,20,5.14,SL,1714589008
274,Paita,-5.0892,-81.1144,25.1,69,7,6.85,PE,1714589284
275,El Tigre,8.8875,-64.2454,32.6,43,99,4.42,VE,1714589285
276,Mili,6.0815,171.735,28.23,80,100,7.49,MH,1714589286
277,Yichang,30.7144,111.2847,16.28,70,100,0.66,CN,1714589287
278,Fort Riley North,39.1108,-96.8139,17.05,67,40,6.69,US,1714589288
279,Lā‘ie,21.6477,-157.9253,26.98,75,55,5.82,US,1714589289
280,Leava,-14.3,-178.1667,29.22,81,56,9.43,WF,1714589290
281,Cidade Velha,14.9167,-23.6167,27.26,47,0,8.75,CV,1714589291
282,Saint Paul Harbor,57.79,-152.4072,4.85,93,100,5.86,US,1714589291
283,Stephenville,32.2207,-98.2023,24.58,82,100,4.12,US,1714589292
284,Hilo,19.7297,-155.09,25.69,92,100,3.09,US,1714589047
285,San Patricio,28.017,-97.5169,28.84,66,90,9.63,US,1714589294
286,Gereida,11.2811,25.1414,31.12,10,100,4.76,SD,1714589295
287,Riversdale,18.1659,-76.9642,26.92,65,57,0.98,JM,1714589297
288,Saint-Philippe,-21.3585,55.7679,23.77,77,100,5.04,RE,1714589297
289,Simanggang,1.2472,111.4528,24.4,100,100,0.81,MY,1714589298
290,Izhmorskiy,56.194,86.6414,-1.39,62,1,1.95,RU,1714589299
291,São João da Barra,-21.6403,-41.0511,29.05,85,0,6.48,BR,1714589300
292,Tazacorte,28.629,-17.9293,19.54,77,20,6.69,ES,1714589301
293,Ballina,-28.8667,153.5667,15.99,83,45,7.24,AU,1714589302
294,Thames,-37.1333,175.5333,13.09,64,0,5.0,NZ,1714589302
295,Rada Tilly,-45.9333,-67.5333,8.27,42,40,6.69,AR,1714589129
296,Chhor,25.5167,69.7667,26.96,10,59,1.98,PK,1714589304
297,Oyama,36.3,139.8,10.38,80,100,3.88,JP,1714589305
298,Cayenne,4.9333,-52.3333,31.02,70,75,5.66,GF,1714589306
299,Trondheim,63.4305,10.3951,17.05,56,100,0.89,NO,1714589105
300,Sihanoukville,10.6093,103.5296,26.97,89,20,2.06,KH,1714589307
301,Chita,52.0333,113.55,-3.91,46,0,2.0,RU,1714589163
302,San Felipe,10.3399,-68.7425,33.23,40,100,1.36,VE,1714589309
303,Hithadhoo,-0.6,73.0833,28.54,79,100,3.75,MV,1714589311
304,Nantucket,41.2835,-70.0995,14.08,80,100,5.66,US,1714589096
305,Alivéri,38.4167,24.0333,18.5,71,1,3.04,GR,1714589312
306,Aykhal,66.0,111.5,-18.77,100,61,2.99,RU,1714589313
307,Tereze,43.9361,42.4434,12.1,87,100,5.1,RU,1714589314
308,Lowell,42.6334,-71.3162,12.43,76,100,2.06,US,1714589109
309,Ampanihy,-24.7,44.75,19.81,92,0,1.79,MG,1714589316
310,Chifeng,42.2683,118.9636,12.89,40,0,4.02,CN,1714589317
311,Guatraché,-37.6678,-63.5302,12.8,35,100,5.23,AR,1714589317
312,Yambol,42.4833,26.5,18.14,72,75,2.06,BG,1714589318
313,Cidreira,-30.1811,-50.2056,21.32,97,100,3.55,BR,1714589319
314,Zakynthos,37.7914,20.8953,17.62,82,20,0.0,GR,1714589320
315,Valeggio sul Mincio,45.3523,10.7367,17.75,87,75,4.12,IT,1714589321
316,Rønne,55.1009,14.7066,11.95,71,30,9.77,DK,1714589321
317,Sampit,-2.5333,112.95,24.61,99,100,1.19,ID,1714589322
318,Bulgan,48.8125,103.5347,6.2,44,19,1.11,MN,1714589323
319,Marsh Harbour,26.5412,-77.0636,24.03,77,71,5.22,BS,1714589299
320,Vershino-Darasunskiy,52.35,115.5167,-3.57,48,0,1.86,RU,1714589325
321,High River,50.5834,-113.8687,3.22,95,100,4.83,CA,1714589263
322,Tosontsengel,48.7567,98.2839,6.52,49,0,1.39,MN,1714589326
323,Fortuna,40.5982,-124.1573,15.52,64,0,7.72,US,1714589327
324,Aldama,22.9167,-98.0667,31.0,42,93,6.76,MX,1714589328
325,Chibougamau,49.9168,-74.3659,11.79,40,100,3.09,CA,1714589329
326,Loango,-4.6719,11.8312,26.62,89,94,2.87,CG,1714589330
327,Nishon Tumani,38.694,65.6751,17.14,48,0,0.0,UZ,1714589331
328,Uturoa,-16.7333,-151.4333,27.12,78,87,10.08,PF,1714589332
329,Constanța,44.1833,28.65,12.61,64,100,5.18,RO,1714589186
330,Ryzdvyany,45.2656,41.8389,12.39,49,94,4.21,RU,1714589334
331,Bolshoy Kamen,43.1225,132.3583,8.21,66,0,2.63,RU,1714589335
332,Zemio,5.0314,25.1361,22.4,96,100,1.87,CF,1714589336
333,Maffra,-37.9667,146.9833,6.32,94,0,1.27,AU,1714589337
334,Haiku-Pauwela,20.9219,-156.3051,25.58,76,20,3.09,US,1714589338
335,Tempoal de Sánchez,21.5167,-98.3833,37.21,39,100,1.47,MX,1714589176
336,Yaren,-0.5472,166.916,28.66,79,100,5.01,NR,1714589339
337,Angaur State,6.906,134.13,28.26,81,100,5.54,PW,1714589340
338,La Passe,45.5549,-0.8967,12.21,79,100,5.07,FR,1714589341
339,Azul,-36.777,-59.8585,14.91,40,55,4.29,AR,1714589300
340,Lihue,21.9789,-159.3672,25.77,81,75,4.63,US,1714589342
341,Hamamatsu,34.7,137.7333,13.33,88,100,2.79,JP,1714589343
342,Ponta Delgada,37.7333,-25.6667,18.44,77,40,5.14,PT,1714589344
343,Ulanhot,46.0833,122.0833,14.22,20,100,2.84,CN,1714589345
344,Choyr,46.3611,108.3611,10.02,24,6,0.47,MN,1714589346
345,Bridgewater,44.3835,-64.5155,13.71,67,100,5.14,CA,1714589313
346,Broome,42.2506,-75.833,24.19,55,20,1.54,US,1714589348
347,Carboneras,37.0015,-1.9213,19.28,52,49,1.48,ES,1714589349
348,Chazuta,-6.5742,-76.1367,30.47,48,60,1.34,PE,1714589351
349,Poção de Pedras,-4.6667,-44.85,30.46,77,79,1.69,BR,1714589351
350,Tateyama,34.9833,139.8667,12.83,85,100,9.36,JP,1714589352
351,Sisimiut,66.9395,-53.6735,-3.13,65,7,4.48,GL,1714589353
352,Nuku'alofa,-21.1333,-175.2,25.19,100,75,1.03,TO,1714589354
353,Fārsān,32.2569,50.561,11.02,82,100,1.26,IR,1714589355
354,Kapuskasing,49.4169,-82.4331,12.0,76,100,2.57,CA,1714589356
355,Kilvelur,10.7672,79.7419,29.58,81,29,6.49,IN,1714589357
356,Kristiansund,63.1115,7.732,16.03,51,0,2.06,NO,1714589358
357,Santo Tomas,14.1079,121.1414,29.14,94,100,1.93,PH,1714589358
358,Murzuk,25.9155,13.9184,32.72,16,78,5.91,LY,1714589359
359,Pangody,65.85,74.4859,-18.84,100,92,2.77,RU,1714589360
360,Puerto Quijarro,-17.7833,-57.7667,37.93,29,38,3.84,BO,1714589361
361,Yerofey Pavlovich,53.9667,121.9667,-1.77,68,11,4.81,RU,1714589362
362,Virginia,37.5481,-77.4467,29.07,50,75,2.57,US,1714589352
363,Saint John,45.2727,-66.0677,10.57,62,20,5.66,CA,1714589275
364,Heinola,61.2056,26.0381,9.44,72,14,1.43,FI,1714589364
365,Arteche,12.2645,125.4048,25.36,86,99,2.03,PH,1714589365
366,Doka,13.5167,35.7667,32.49,10,6,4.42,SD,1714589366
367,Burgas,42.5061,27.4678,14.06,96,96,0.89,BG,1714589367
368,Pailón,-17.65,-62.75,33.82,44,87,7.45,BO,1714589368
369,Bhabhua,25.05,83.6167,28.68,11,0,2.1,IN,1714589369
370,Kurayoshi,35.4333,133.8167,11.34,71,100,3.96,JP,1714589370
371,Katsuura,35.1333,140.3,12.51,88,100,11.18,JP,1714589370
372,Kimbe,-5.5502,150.1429,24.62,93,59,1.72,PG,1714589371
373,Luganville,-15.5333,167.1667,25.86,89,84,3.67,VU,1714589182
374,Codrington,-38.2667,141.9667,13.48,63,100,5.89,AU,1714589373
375,Al Jawf,29.5,38.75,24.73,38,6,4.12,SA,1714589374
376,Venice of the Philippines,4.6628,119.3928,28.81,77,27,4.1,PH,1714589375
377,Samaná,19.2056,-69.3369,29.12,74,75,4.12,DO,1714589375
378,Smithers,54.7804,-127.1743,8.18,66,100,1.03,CA,1714589376
379,Gorno-Altaysk,51.9561,85.955,1.95,99,100,2.24,RU,1714589377
380,Saint Augustine Beach,29.8505,-81.2654,31.11,61,0,5.66,US,1714589378
381,São Geraldo do Araguaia,-6.4006,-48.555,28.04,89,100,0.25,BR,1714589379
382,Mount Vernon,40.9126,-73.8371,27.19,57,40,4.12,US,1714589319
383,Isangel,-19.55,169.2667,23.06,94,75,0.0,VU,1714589381
384,Sānand,22.9833,72.3833,29.12,16,100,3.35,IN,1714589382
385,Gizo Government Station,-8.103,156.8419,28.07,78,98,1.49,SB,1714589382
386,Debark’,13.1561,37.8981,17.39,18,0,1.5,ET,1714589383
387,Lodwar,3.1191,35.5973,31.79,49,100,2.68,KE,1714589384
388,Bol’shoye Boldino,55.0059,45.3142,7.03,75,100,4.71,RU,1714589385
389,Nelson Bay,-32.7167,152.15,16.67,96,100,0.45,AU,1714589386
390,Villa de Cos,23.2833,-102.35,30.32,9,6,8.17,MX,1714589177
391,Koné,-21.0595,164.8658,18.7,85,0,1.78,NC,1714589388
392,Paracuru,-3.41,-39.0306,30.06,81,11,2.55,BR,1714589388
393,Dul'durga,50.6761,113.5931,-1.28,43,12,1.14,RU,1714589389
394,Kyren,51.6828,102.1408,2.75,70,100,0.89,RU,1714589390
395,Port-Gentil,-0.7193,8.7815,27.98,83,20,3.6,GA,1714589391
396,Yung Shue Wan,22.2333,114.1167,24.82,90,6,3.61,HK,1714589392
397,Zaozërsk,69.4005,32.4476,-1.12,99,100,1.66,RU,1714589392
398,"Kampung Bukit Tinggi, Bentong",3.35,101.8167,26.16,93,100,0.9,MY,1714589393
399,Gobabis,-22.45,18.9667,20.07,26,0,4.91,NA,1714589395
400,Woolgoolga,-30.1106,153.2007,15.93,78,100,6.29,AU,1714589396
401,Mahendragarh,28.2833,76.15,22.96,20,0,3.03,IN,1714589397
402,Vallenar,-28.5708,-70.7581,23.66,23,13,2.86,CL,1714589398
403,Igarka,67.4667,86.5833,-17.21,99,92,1.34,RU,1714589399
404,Koh Kong,11.6175,102.9806,27.11,83,2,2.61,KH,1714589372
405,São Tomé,0.3365,6.7273,29.02,79,75,4.12,ST,1714589400
406,Taltal,-25.4,-70.4833,19.6,73,99,2.01,CL,1714589401
407,Ad Dilam,23.9915,47.1627,21.23,76,53,5.03,SA,1714589402
408,Zhelezīnka,53.54,75.3072,5.44,82,100,9.9,KZ,1714589403
409,Pospelikha,51.95,81.7667,-0.06,93,8,3.97,RU,1714589403
410,Manta,-0.95,-80.7333,29.88,70,40,5.14,EC,1714589404
411,Ballycastle,55.2044,-6.243,11.41,73,100,2.23,GB,1714589405
412,Al Hufūf,25.3646,49.5653,21.19,94,75,1.54,SA,1714589406
413,Mālvan,16.0667,73.4667,27.66,75,5,3.64,IN,1714589407
414,Arrondissement du Havre,49.5833,0.3333,10.22,100,100,4.63,FR,1714589408
415,Fort St. John,56.2499,-120.8529,6.94,76,75,3.09,CA,1714589409
416,Port Hedland,-20.3167,118.5667,21.03,24,0,3.09,AU,1714589410
417,Vila Velha,-20.3297,-40.2925,30.54,99,20,5.66,BR,1714589410
418,Island Harbour,50.724,-1.2758,14.53,81,100,0.89,GB,1714589411
419,Marshfield,44.6689,-90.1718,14.49,62,40,9.26,US,1714589140
420,Sandnessjøen,66.0217,12.6316,16.06,31,0,1.54,NO,1714589413
421,Colchani,-20.3,-66.9333,15.25,23,81,5.91,BO,1714589414
422,Tostado,-29.232,-61.7692,18.49,95,100,6.28,AR,1714589416
423,Sabang,5.8933,95.3214,29.48,75,100,0.77,ID,1714589416
424,Touros,-5.1989,-35.4608,27.03,87,17,5.51,BR,1714589417
425,Hajīn,34.6927,40.827,22.38,61,7,2.52,SY,1714589418
426,Bodaybo,57.8506,114.1933,-5.5,95,94,0.59,RU,1714589419
427,Sinop Province,41.7711,34.8709,11.01,94,100,0.99,TR,1714589420
428,Bemidji,47.4736,-94.8803,11.7,77,100,5.14,US,1714589421
429,Fauske,67.2588,15.3918,13.3,72,100,2.98,NO,1714589422
430,Tadine,-21.55,167.8833,20.88,84,100,4.24,NC,1714589423
431,Untsukul',42.7115,46.7866,13.83,83,88,0.95,RU,1714589424
432,Shambu,9.5667,37.1,16.2,35,98,1.16,ET,1714589424
433,Rio Tuba,8.5061,117.4317,27.31,86,100,3.72,PH,1714589425
434,Malango,-2.9627,119.9001,19.21,99,100,0.94,ID,1714589426
435,Lerwick,60.1545,-1.1494,9.0,85,100,4.25,GB,1714589427
436,Anshun,26.25,105.9333,10.38,93,100,3.4,CN,1714589428
437,Kailua-Kona,19.6406,-155.9956,28.11,77,0,1.54,US,1714589429
438,Guarapari,-20.6667,-40.4975,26.48,76,1,5.1,BR,1714589429
439,Gunjur,13.2019,-16.7339,34.04,33,0,5.14,GM,1714589430
440,Hadibu,12.65,54.0333,29.18,81,100,2.93,YE,1714589431
441,Owando,-0.4819,15.8999,27.17,67,62,1.78,CG,1714589432
442,La Ronge,55.1001,-105.2842,7.12,61,75,7.2,CA,1714589237
443,Tura,25.5198,90.2201,23.6,80,0,4.12,IN,1714589434
444,Lawrenceburg,38.0373,-84.8966,28.26,45,0,5.14,US,1714589435
445,Puerto Deseado,-47.7503,-65.8938,6.76,66,99,9.8,AR,1714589301
446,Prince George,53.9166,-122.753,11.25,59,0,3.6,CA,1714589162
447,Whangarei,-35.7317,174.3239,11.84,91,96,2.65,NZ,1714589251
448,Visby,57.6409,18.296,14.12,47,83,7.2,SE,1714589439
449,Vilyuysk,63.7553,121.6247,-1.67,97,100,4.02,RU,1714589440
450,Kyzyl,51.7,94.45,8.9,49,100,1.79,RU,1714589441
451,Thurgoona,-36.0451,146.9919,7.59,100,0,0.89,AU,1714589441
452,Daru,-9.0763,143.2092,26.75,90,100,7.46,PG,1714589442
453,Dudinka,69.4058,86.1778,-17.99,99,100,2.33,RU,1714589443
454,Luanda,-8.8368,13.2343,28.0,83,20,4.12,AO,1714589444
455,Tomatlán,19.9333,-105.25,32.07,30,13,4.9,MX,1714589176
456,Merca,1.7159,44.7717,28.03,82,100,4.41,SO,1714589446
457,Carutapera,-1.195,-46.02,26.21,91,100,2.3,BR,1714589447
458,Port Macquarie,-31.4333,152.9167,14.94,85,100,3.76,AU,1714589201
459,Kendari,-3.945,122.4989,23.91,97,100,1.36,ID,1714589449
460,Wingham,43.8879,-81.3114,20.27,74,100,7.02,CA,1714589400
461,Lady Frere,-31.7031,27.2329,15.31,55,6,0.4,ZA,1714589450
462,Verkhnyaya Khava,51.8404,39.9413,17.04,76,21,2.71,RU,1714589451
463,Namtsy,62.7161,129.6658,-3.12,91,35,3.08,RU,1714589452
464,Lib,8.3122,167.3766,27.52,79,100,9.29,MH,1714589453
465,Mahon,39.8885,4.2658,16.31,55,20,9.26,ES,1714589454
466,Luena,-11.7833,19.9167,15.93,55,6,1.54,AO,1714589455
467,Tabas,33.5959,56.9244,26.88,14,100,2.72,IR,1714589456
468,Dourados,-22.2211,-54.8056,34.81,33,35,6.18,BR,1714589392
469,Akureyri,65.6835,-18.0878,5.96,61,0,4.12,IS,1714589457
470,Springbok,-29.6643,17.8865,20.36,34,18,0.5,ZA,1714589458
471,Ţubarjal,30.4999,38.216,25.83,32,72,4.55,SA,1714589459
472,Guînes,50.8671,1.8703,14.93,98,100,5.35,FR,1714589461
473,Sinabang,2.4803,96.3801,27.14,83,100,1.01,ID,1714589462
474,Cambria,35.5641,-121.0808,24.02,46,0,3.52,US,1714589408
475,Lagi,10.6667,107.7833,28.15,80,100,3.51,VN,1714589463
476,Ifanadiana,-21.3,47.6333,20.59,99,67,0.92,MG,1714589464
477,Bonthe,7.5264,-12.505,28.65,79,99,4.72,SL,1714589465
478,Chota,-6.55,-78.65,20.4,62,25,2.83,PE,1714589466
479,Boundiali,9.5217,-6.4869,32.68,22,93,1.58,CI,1714589467
480,Euclides da Cunha,-10.5075,-39.0158,26.56,63,100,2.22,BR,1714589467
481,Suntar,62.1444,117.6319,-9.33,95,100,1.64,RU,1714589469
482,Macenta,8.5435,-9.471,27.82,41,100,0.3,GN,1714589470
483,Ålesund,62.4723,6.1549,16.06,73,0,2.57,NO,1714589357
484,Sheregesh,52.9209,87.9869,-0.02,98,100,2.01,RU,1714589472
485,Lompoc,34.6391,-120.4579,26.03,55,0,7.15,US,1714589473
486,Pandan,14.0453,124.1694,25.94,88,100,2.82,PH,1714589474
487,Mana,5.6592,-53.7767,28.82,70,100,4.14,GF,1714589475
488,Bataiporã,-22.2953,-53.2711,36.12,27,4,3.9,BR,1714589475
489,Cooper’s Town,26.8667,-77.5167,24.33,72,9,2.55,BS,1714589476
490,Kingston,17.997,-76.7936,27.53,78,75,2.06,JM,1714589477
491,Takhatgarh,25.3333,73.0,25.6,11,0,1.25,IN,1714589478
492,River Cess,5.46,-9.5828,28.41,83,89,4.25,LR,1714589479
493,Christchurch,-43.5333,172.6333,8.28,91,100,2.57,NZ,1714589480
494,Zavety Il’icha,49.0294,140.2494,7.87,58,23,2.29,RU,1714589481
495,Totness,5.8833,-56.3167,29.28,68,90,5.78,SR,1714589482
496,Ryōtsu-minato,38.0833,138.4333,8.94,82,100,2.02,JP,1714589482
497,Jaciara,-15.9653,-54.9683,34.35,36,58,4.1,BR,1714589451
498,Nassau,40.7507,-73.5829,26.12,66,0,5.66,US,1714589484
499,Ulety,51.3572,112.4849,-2.85,50,4,1.45,RU,1714589485
500,Kangding,30.0513,101.9603,6.41,98,100,1.11,CN,1714589487
501,Magistral'nyy,56.1725,107.4458,-4.24,91,44,0.63,RU,1714589488
502,Novo Aripuanã,-5.1206,-60.3797,33.73,51,90,1.8,BR,1714589488
503,Punata,-17.55,-65.8333,28.88,33,53,5.66,BO,1714589489
504,Pyt-Yakh,60.7499,72.8582,-5.9,90,11,2.64,RU,1714589490
505,Great Bend,38.3645,-98.7648,22.01,66,100,7.2,US,1714589491
506,Nunkiní,20.3333,-90.1833,40.95,22,1,3.97,MX,1714589493
507,Balkanabat,39.5108,54.3671,23.01,32,80,1.55,TM,1714589493
508,Maintirano,-18.0667,44.0167,26.42,82,6,4.89,MG,1714589494
509,Weno,7.4515,151.8468,28.97,84,75,4.63,FM,1714589495
510,Vendas Novas,38.6771,-8.4579,14.93,61,6,5.26,PT,1714589497
511,Bhadravati,13.8667,75.7167,25.5,73,99,2.96,IN,1714589498
512,Mandera,3.9366,41.867,31.89,50,100,4.66,KE,1714589498
513,Erenhot,43.6475,111.9767,12.91,27,0,5.71,CN,1714589499
514,Sulaymaniyah,35.5611,45.4375,15.24,100,75,2.06,IQ,1714589500
515,Horta,38.5333,-28.6333,17.8,93,75,9.83,PT,1714589501
516,Natal,-5.795,-35.2094,30.12,74,75,6.17,BR,1714589246
517,Los Alamos,35.8881,-106.307,22.85,17,0,7.72,US,1714589330
518,Awjilah,29.1081,21.2869,31.47,15,14,4.45,LY,1714589504
519,Andırın,37.5776,36.3549,13.74,92,100,0.9,TR,1714589505
520,Kenai,60.5544,-151.2583,7.03,65,75,2.57,US,1714589505
521,Ýpsonas,34.6884,32.9574,20.54,88,0,3.6,CY,1714589506
522,Callao,-12.0667,-77.15,22.16,78,40,5.14,PE,1714589507
523,Mount Pearl,47.5166,-52.7813,6.92,97,100,4.63,CA,1714589350
524,St. George's,12.0564,-61.7485,30.82,70,40,7.72,GD,1714589272
525,Patterson,37.4716,-121.1297,22.21,25,0,8.65,US,1714589510
526,Dehui,44.5333,125.7,17.22,23,7,9.36,CN,1714589511
527,Ust'-Kut,56.7938,105.7672,-5.89,92,100,1.33,RU,1714589512
528,Wotho,10.1657,166.0102,27.44,76,100,9.02,MH,1714589513
529,Temiskaming Shores,47.4938,-79.7153,11.89,87,100,3.44,CA,1714589514
530,Kirensk,57.7853,108.1119,-5.02,95,33,0.89,RU,1714589516
531,Gemena,3.25,19.7667,24.07,75,100,0.93,CD,1714589517
532,Qahderījān,32.5767,51.455,14.53,59,100,2.35,IR,1714589517
533,Birao,10.2849,22.7882,31.14,12,93,2.26,CF,1714589518
534,Dryden,49.7833,-92.7503,2.16,93,100,0.0,CA,1714589519
535,Waiuku,-37.25,174.75,17.33,81,44,5.58,NZ,1714589520
536,Kourou,5.1552,-52.6478,31.03,73,100,3.69,GF,1714589521
537,Xigazê,29.25,88.8833,3.26,21,0,2.98,CN,1714589521
538,Revda,56.801,59.9303,2.86,98,100,2.29,RU,1714589522
539,Pangai,-19.8,-174.35,27.06,83,20,3.6,TO,1714589524
540,San Juan de Miraflores,-12.1629,-76.9635,21.29,80,56,3.79,PE,1714589525
541,Karabash,55.4808,60.2157,3.55,90,18,2.42,RU,1714589526
542,Muscat,23.6139,58.5922,31.01,53,100,3.82,OM,1714589449
543,Amparafaravola,-17.5833,48.2167,19.21,98,100,1.74,MG,1714589528
544,Dabola,10.75,-11.1167,33.33,24,66,1.46,GN,1714589529
545,Mariental,-24.6333,17.9667,24.4,22,0,5.13,NA,1714589530
546,Amahai,-3.3333,128.9167,26.12,82,80,0.74,ID,1714589531
547,Chebarkul',54.9749,60.3633,3.64,95,33,2.42,RU,1714589532
548,Karungdong,5.8844,121.263,27.21,83,82,2.5,PH,1714589532
549,Spring Creek,40.7266,-115.5859,7.67,39,0,0.89,US,1714589533
550,Lincheng,19.9078,109.6858,26.63,90,82,4.25,CN,1714589512
551,Sitia,35.2,26.0986,16.57,89,59,4.04,GR,1714589535
552,Ed Damer,17.5928,33.9592,30.75,10,0,4.21,SD,1714589536
553,Shetpe,44.1667,52.1167,19.92,19,81,9.08,KZ,1714589536
554,Brookings,44.3114,-96.7984,16.21,45,0,4.92,US,1714589486
555,Iskateley,67.6803,53.1512,-9.43,92,100,2.24,RU,1714589538
556,Vernon,50.2581,-119.2691,16.45,31,100,1.03,CA,1714589539
557,Minas de Marcona,-15.2119,-75.1103,21.73,58,3,7.5,PE,1714589540
558,Faya-Largeau,17.9257,19.1043,34.36,8,1,5.52,TD,1714589541
559,Yashkul',46.1711,45.3435,17.78,26,100,2.92,RU,1714589541
560,Kharkhorin,47.1975,102.8238,10.54,31,0,3.52,MN,1714589435
561,Ijebu-Ife,6.7784,4.0339,27.68,80,100,1.85,NG,1714589543
562,Fort McMurray,56.7268,-111.381,12.77,32,0,5.14,CA,1714589544
563,Northam,51.0333,-4.2167,12.01,75,100,3.1,GB,1714589545
564,El Hajeb,33.6879,-5.371,11.06,82,100,4.25,MA,1714589545
565,Macon,39.8667,-88.9668,24.58,46,0,4.12,US,1714589268
566,Gillette,44.2911,-105.5022,13.35,32,0,4.47,US,1714589518
567,Balyqshy,47.0667,51.8667,12.0,66,0,2.0,KZ,1714589548
568,Tabuk,17.4189,121.4443,24.5,88,98,0.78,PH,1714589549
569,Arica,-18.475,-70.3042,25.75,68,0,4.12,CL,1714589426
570,Guigang,23.0964,109.6092,20.51,88,100,1.73,CN,1714589551
571,Burē,10.7,37.0667,21.28,24,82,3.96,ET,1714589552
572,Maputo,-25.9653,32.5892,24.82,83,20,4.63,MZ,1714589552
573,Moranbah,-22.0016,148.0466,16.19,93,0,4.3,AU,1714589553
574,Seydi,39.4816,62.9137,24.66,13,100,3.04,TM,1714589554
575,Marsabit,2.3284,37.9899,21.45,74,99,3.67,KE,1714589555
576,Mahdia,35.5047,11.0622,19.97,75,3,5.16,TN,1714589556
577,Quellón,-43.1167,-73.6167,9.51,75,48,3.68,CL,1714589557
578,Acapulco de Juárez,16.8634,-99.8901,29.9,66,20,5.14,MX,1714589557
579,Ambodifotatra,-16.9833,49.85,26.44,84,85,4.45,MG,1714589558
580,Quatre Cocos,-20.2078,57.7625,25.06,70,100,3.92,MU,1714589559
581,Glen Innes,-29.7333,151.7333,7.58,97,33,4.12,AU,1714589560
582,Manokwari,-0.8667,134.0833,26.88,82,100,1.49,ID,1714589561
583,Okhotsk,59.3833,143.3,-5.31,89,19,3.27,RU,1714589562
584,São Vicente,-23.9631,-46.3919,35.1,49,20,3.09,BR,1714589397
585,Frenchville,-23.3442,150.5507,17.52,82,0,3.6,AU,1714589564
